{"type":"FeatureCollection","features":[{"type":"Feature","geometry":{"type":"Point","coordinates":[4.513,52.1776]},"properties":{"wdid":"Q19643288","label":"Vuurbloem","count":"1"}},{"type":"Feature","geometry":{"type":"Point","coordinates":[4.4978,52.1584]},"properties":{"wdid":"Q19658157","label":"Willemshof","count":"1"}},{"type":"Feature","geometry":{"type":"Point","coordinates":[4.4449,52.1503]},"properties":{"wdid":"Q18938547","label":"Annie van Hattemstraat","count":"1"}},{"type":"Feature","geometry":{"type":"Point","coordinates":[4.4951,52.1614]},"properties":{"wdid":"Q19341273","label":"Meermanshof","count":"1"}},{"type":"Feature","geometry":{"type":"Point","coordinates":[4.4924,52.1569]},"properties":{"wdid":"Q19350837","label":"Mosterdsteeg","count":"1"}},{"type":"Feature","geometry":{"type":"Point","coordinates":[4.4963,52.1554]},"properties":{"wdid":"Q19355230","label":"Nieuwebrugsteeg","count":"1"}},{"type":"Feature","geometry":{"type":"Point","coordinates":[4.4919,52.1609]},"properties":{"wdid":"Q19391292","label":"Olieslagerspoort","count":"1"}},{"type":"Feature","geometry":{"type":"Point","coordinates":[4.5061,52.1567]},"properties":{"wdid":"Q19395427","label":"Oosterdwarsstraat","count":"1"}},{"type":"Feature","geometry":{"type":"Point","coordinates":[4.4953,52.1649]},"properties":{"wdid":"Q19430242","label":"Prins Frederikstraat","count":"1"}},{"type":"Feature","geometry":{"type":"Point","coordinates":[4.4978,52.1646]},"properties":{"wdid":"Q19430316","label":"Prins Hendrikplein","count":"1"}},{"type":"Feature","geometry":{"type":"Point","coordinates":[4.4909,52.1526]},"properties":{"wdid":"Q19434687","label":"Prinses Wilhelminastraat","count":"1"}},{"type":"Feature","geometry":{"type":"Point","coordinates":[4.4959,52.1589]},"properties":{"wdid":"Q19516267","label":"Sint Pancrassteeg","count":"1"}},{"type":"Feature","geometry":{"type":"Point","coordinates":[4.4878,52.1614]},"properties":{"wdid":"Q19550932","label":"Stevenshof","count":"1"}},{"type":"Feature","geometry":{"type":"Point","coordinates":[4.4516,52.1526]},"properties":{"wdid":"Q19017559","label":"Dijkhoflaan","count":"1"}},{"type":"Feature","geometry":{"type":"Point","coordinates":[4.4797,52.1463]},"properties":{"wdid":"Q19142541","label":"Gerrit van der Veenstraat","count":"1"}},{"type":"Feature","geometry":{"type":"Point","coordinates":[4.5055,52.1724]},"properties":{"wdid":"Q19201067","label":"Havikshorst","count":"1"}},{"type":"Feature","geometry":{"type":"Point","coordinates":[4.5003,52.1814]},"properties":{"wdid":"Q19243705","label":"Heidezegge","count":"1"}},{"type":"Feature","geometry":{"type":"Point","coordinates":[4.5163,52.155]},"properties":{"wdid":"Q19299619","label":"Kettingstraat","count":"1"}},{"type":"Feature","geometry":{"type":"Point","coordinates":[4.5121,52.1811]},"properties":{"wdid":"Q19300937","label":"Kievitshoek","count":"1"}},{"type":"Feature","geometry":{"type":"Point","coordinates":[4.5022,52.1777]},"properties":{"wdid":"Q19306014","label":"Kokkelbank","count":"1"}},{"type":"Feature","geometry":{"type":"Point","coordinates":[4.5084,52.1654]},"properties":{"wdid":"Q19307650","label":"Kooihof","count":"1"}},{"type":"Feature","geometry":{"type":"Point","coordinates":[4.5088,52.1721]},"properties":{"wdid":"Q19313443","label":"Kraaienhorst","count":"1"}},{"type":"Feature","geometry":{"type":"Point","coordinates":[4.462,52.1503]},"properties":{"wdid":"Q19324046","label":"Leidseweg","count":"1"}},{"type":"Feature","geometry":{"type":"Point","coordinates":[4.5171,52.154]},"properties":{"wdid":"Q19341033","label":"Meerburgerstraat","count":"1"}},{"type":"Feature","geometry":{"type":"Point","coordinates":[4.5008,52.1593]},"properties":{"wdid":"Q19355123","label":"Nieuwe Waardstraat","count":"1"}},{"type":"Feature","geometry":{"type":"Point","coordinates":[4.4894,52.1462]},"properties":{"wdid":"Q19411259","label":"Perzikweg","count":"1"}},{"type":"Feature","geometry":{"type":"Point","coordinates":[4.475,52.1604]},"properties":{"wdid":"Q19429617","label":"Pretoriusstraat","count":"1"}},{"type":"Feature","geometry":{"type":"Point","coordinates":[4.4734,52.1434]},"properties":{"wdid":"Q19569883","label":"Toscaninilaan","count":"1"}},{"type":"Feature","geometry":{"type":"Point","coordinates":[4.5085,52.1675]},"properties":{"wdid":"Q18938978","label":"Antillenstraat","count":"1"}},{"type":"Feature","geometry":{"type":"Point","coordinates":[4.5045,52.1433]},"properties":{"wdid":"Q18950284","label":"Zaalbergweg","count":"1"}},{"type":"Feature","geometry":{"type":"Point","coordinates":[4.5146,52.1628]},"properties":{"wdid":"Q18954069","label":"Zijloever","count":"1"}},{"type":"Feature","geometry":{"type":"Point","coordinates":[4.478,52.1607]},"properties":{"wdid":"Q18958119","label":"Bloemlustplein","count":"1"}},{"type":"Feature","geometry":{"type":"Point","coordinates":[4.5224,52.1504]},"properties":{"wdid":"Q18975556","label":"Bruggestraat","count":"1"}},{"type":"Feature","geometry":{"type":"Point","coordinates":[4.4421,52.1526]},"properties":{"wdid":"Q18986045","label":"Charlotte K\u00f6hlerpad","count":"1"}},{"type":"Feature","geometry":{"type":"Point","coordinates":[4.5105,52.1538]},"properties":{"wdid":"Q19288323","label":"Kanaalstraat","count":"1"}},{"type":"Feature","geometry":{"type":"Point","coordinates":[4.4851,52.1556]},"properties":{"wdid":"Q19306493","label":"Komkommerhof","count":"1"}},{"type":"Feature","geometry":{"type":"Point","coordinates":[4.4908,52.1497]},"properties":{"wdid":"Q19307146","label":"Koninginnelaan","count":"1"}},{"type":"Feature","geometry":{"type":"Point","coordinates":[4.4785,52.1548]},"properties":{"wdid":"Q19330205","label":"Louis Couperusstraat","count":"1"}},{"type":"Feature","geometry":{"type":"Point","coordinates":[4.5076,52.151]},"properties":{"wdid":"Q19342564","label":"Meijerskade","count":"1"}},{"type":"Feature","geometry":{"type":"Point","coordinates":[4.4868,52.146]},"properties":{"wdid":"Q19343279","label":"Meloenstraat","count":"1"}},{"type":"Feature","geometry":{"type":"Point","coordinates":[4.4697,52.1582]},"properties":{"wdid":"Q19350667","label":"Morslaan","count":"1"}},{"type":"Feature","geometry":{"type":"Point","coordinates":[4.5035,52.1643]},"properties":{"wdid":"Q19397165","label":"Oranjestraat","count":"1"}},{"type":"Feature","geometry":{"type":"Point","coordinates":[4.5064,52.1612]},"properties":{"wdid":"Q19403605","label":"Overrijn","count":"1"}},{"type":"Feature","geometry":{"type":"Point","coordinates":[4.4885,52.1654]},"properties":{"wdid":"Q19413415","label":"Piet Heinstraat","count":"1"}},{"type":"Feature","geometry":{"type":"Point","coordinates":[4.4989,52.1612]},"properties":{"wdid":"Q19515795","label":"Sint Janshof","count":"1"}},{"type":"Feature","geometry":{"type":"Point","coordinates":[4.5089,52.1512]},"properties":{"wdid":"Q19575363","label":"Uhlenbeckkade","count":"1"}},{"type":"Feature","geometry":{"type":"Point","coordinates":[4.5045,52.1557]},"properties":{"wdid":"Q19628003","label":"Veerhuis","count":"1"}},{"type":"Feature","geometry":{"type":"Point","coordinates":[4.514,52.1737]},"properties":{"wdid":"Q19567546","label":"Tjotterwerf","count":"1"}},{"type":"Feature","geometry":{"type":"Point","coordinates":[4.5101,52.1825]},"properties":{"wdid":"Q19574402","label":"Tunicaduin","count":"1"}},{"type":"Feature","geometry":{"type":"Point","coordinates":[4.5168,52.1737]},"properties":{"wdid":"Q18971159","label":"Brigantijnwal","count":"1"}},{"type":"Feature","geometry":{"type":"Point","coordinates":[4.4863,52.1426]},"properties":{"wdid":"Q18983260","label":"Corbuloweg","count":"1"}},{"type":"Feature","geometry":{"type":"Point","coordinates":[4.511,52.1533]},"properties":{"wdid":"Q18984463","label":"Cosijnstraat","count":"1"}},{"type":"Feature","geometry":{"type":"Point","coordinates":[4.5083,52.1819]},"properties":{"wdid":"Q18984471","label":"Cosmeaduin","count":"1"}},{"type":"Feature","geometry":{"type":"Point","coordinates":[4.4791,52.1621]},"properties":{"wdid":"Q18985402","label":"Cronj\u00e9straat","count":"1"}},{"type":"Feature","geometry":{"type":"Point","coordinates":[4.5105,52.1811]},"properties":{"wdid":"Q19001813","label":"Dagvlinder","count":"1"}},{"type":"Feature","geometry":{"type":"Point","coordinates":[4.5134,52.1603]},"properties":{"wdid":"Q19015643","label":"Dorus Rijkerskade","count":"1"}},{"type":"Feature","geometry":{"type":"Point","coordinates":[4.5002,52.1499]},"properties":{"wdid":"Q19057059","label":"Du Rieustraat","count":"1"}},{"type":"Feature","geometry":{"type":"Point","coordinates":[4.5075,52.1822]},"properties":{"wdid":"Q19118723","label":"Ericaduin","count":"1"}},{"type":"Feature","geometry":{"type":"Point","coordinates":[4.5127,52.1823]},"properties":{"wdid":"Q19118987","label":"Gardeniadal","count":"1"}},{"type":"Feature","geometry":{"type":"Point","coordinates":[4.4871,52.1632]},"properties":{"wdid":"Q19152920","label":"Fokkeplein","count":"1"}},{"type":"Feature","geometry":{"type":"Point","coordinates":[4.5151,52.1817]},"properties":{"wdid":"Q19157686","label":"Forsitiadal","count":"1"}},{"type":"Feature","geometry":{"type":"Point","coordinates":[4.5147,52.1799]},"properties":{"wdid":"Q18927307","label":"Aalscholveroord","count":"1"}},{"type":"Feature","geometry":{"type":"Point","coordinates":[4.4863,52.1478]},"properties":{"wdid":"Q18927781","label":"Aardbeipad","count":"1"}},{"type":"Feature","geometry":{"type":"Point","coordinates":[4.4904,52.1472]},"properties":{"wdid":"Q18928920","label":"Abrikozenweg","count":"1"}},{"type":"Feature","geometry":{"type":"Point","coordinates":[4.5013,52.1649]},"properties":{"wdid":"Q18937779","label":"Anna Paulownastraat","count":"1"}},{"type":"Feature","geometry":{"type":"Point","coordinates":[4.4878,52.1459]},"properties":{"wdid":"Q18939826","label":"Appelstraat","count":"1"}},{"type":"Feature","geometry":{"type":"Point","coordinates":[4.4636,52.1535]},"properties":{"wdid":"Q18939883","label":"Aquamarijnstraat","count":"1"}},{"type":"Feature","geometry":{"type":"Point","coordinates":[4.5136,52.1655]},"properties":{"wdid":"Q18941542","label":"Balistraat","count":"1"}},{"type":"Feature","geometry":{"type":"Point","coordinates":[4.4852,52.1656]},"properties":{"wdid":"Q18941855","label":"Ballonpad","count":"1"}},{"type":"Feature","geometry":{"type":"Point","coordinates":[4.4454,52.1548]},"properties":{"wdid":"Q18946678","label":"Beppy Nooijstraat","count":"1"}},{"type":"Feature","geometry":{"type":"Point","coordinates":[4.4779,52.1425]},"properties":{"wdid":"Q18949362","label":"Berlagestraat","count":"1"}},{"type":"Feature","geometry":{"type":"Point","coordinates":[4.5017,52.1736]},"properties":{"wdid":"Q18951511","label":"Beukenrode","count":"1"}},{"type":"Feature","geometry":{"type":"Point","coordinates":[4.4767,52.1528]},"properties":{"wdid":"Q18963100","label":"Boshof","count":"1"}},{"type":"Feature","geometry":{"type":"Point","coordinates":[4.5,52.1741]},"properties":{"wdid":"Q18963443","label":"Bosrode","count":"1"}},{"type":"Feature","geometry":{"type":"Point","coordinates":[4.5116,52.1538]},"properties":{"wdid":"Q19189004","label":"Hartmanstraat","count":"1"}},{"type":"Feature","geometry":{"type":"Point","coordinates":[4.4915,52.1678]},"properties":{"wdid":"Q19207320","label":"Groenoordstraat","count":"1"}},{"type":"Feature","geometry":{"type":"Point","coordinates":[4.5138,52.1808]},"properties":{"wdid":"Q19222899","label":"Gruttohoek","count":"1"}},{"type":"Feature","geometry":{"type":"Point","coordinates":[4.4534,52.1553]},"properties":{"wdid":"Q19245484","label":"Helena Verburgstraat","count":"1"}},{"type":"Feature","geometry":{"type":"Point","coordinates":[4.5101,52.1791]},"properties":{"wdid":"Q19250302","label":"Hermelijnvlinder","count":"1"}},{"type":"Feature","geometry":{"type":"Point","coordinates":[4.5143,52.1815]},"properties":{"wdid":"Q19262041","label":"Hortensiadal","count":"1"}},{"type":"Feature","geometry":{"type":"Point","coordinates":[4.5035,52.1669]},"properties":{"wdid":"Q19271243","label":"Irenestraat","count":"1"}},{"type":"Feature","geometry":{"type":"Point","coordinates":[4.4714,52.1424]},"properties":{"wdid":"Q19271632","label":"Isoldehof","count":"1"}},{"type":"Feature","geometry":{"type":"Point","coordinates":[4.5014,52.1686]},"properties":{"wdid":"Q19282059","label":"Juliana van Stolberghof","count":"1"}},{"type":"Feature","geometry":{"type":"Point","coordinates":[4.5129,52.1576]},"properties":{"wdid":"Q19291600","label":"Karel Doormanweg","count":"1"}},{"type":"Feature","geometry":{"type":"Point","coordinates":[4.4808,52.1706]},"properties":{"wdid":"Q18965870","label":"Braassemerstraat","count":"1"}},{"type":"Feature","geometry":{"type":"Point","coordinates":[4.4738,52.144]},"properties":{"wdid":"Q18983314","label":"Corellistraat","count":"1"}},{"type":"Feature","geometry":{"type":"Point","coordinates":[4.518,52.153]},"properties":{"wdid":"Q19324264","label":"Lekstraat","count":"1"}},{"type":"Feature","geometry":{"type":"Point","coordinates":[4.512,52.1734]},"properties":{"wdid":"Q19324671","label":"Lemsteraakwerf","count":"1"}},{"type":"Feature","geometry":{"type":"Point","coordinates":[4.4798,52.1434]},"properties":{"wdid":"Q19326692","label":"Lieven de Keijstraat","count":"1"}},{"type":"Feature","geometry":{"type":"Point","coordinates":[4.5132,52.1827]},"properties":{"wdid":"Q19328850","label":"Lobeliadal","count":"1"}},{"type":"Feature","geometry":{"type":"Point","coordinates":[4.496,52.1522]},"properties":{"wdid":"Q19329934","label":"Lorentzhof","count":"1"}},{"type":"Feature","geometry":{"type":"Point","coordinates":[4.4918,52.1683]},"properties":{"wdid":"Q19352062","label":"Musschenbroekstraat","count":"1"}},{"type":"Feature","geometry":{"type":"Point","coordinates":[4.4901,52.1544]},"properties":{"wdid":"Q19507217","label":"Samuel de Zee'shof","count":"1"}},{"type":"Feature","geometry":{"type":"Point","coordinates":[4.5174,52.1744]},"properties":{"wdid":"Q19510697","label":"Schoenerwal","count":"1"}},{"type":"Feature","geometry":{"type":"Point","coordinates":[4.4508,52.1518]},"properties":{"wdid":"Q19207333","label":"Groenrand","count":"1"}},{"type":"Feature","geometry":{"type":"Point","coordinates":[4.4644,52.1597]},"properties":{"wdid":"Q19515064","label":"Simon Stevinpad","count":"1"}},{"type":"Feature","geometry":{"type":"Point","coordinates":[4.4615,52.1563]},"properties":{"wdid":"Q19520927","label":"Smaragdlaan","count":"1"}},{"type":"Feature","geometry":{"type":"Point","coordinates":[4.5021,52.1747]},"properties":{"wdid":"Q19532377","label":"Sparrenrode","count":"1"}},{"type":"Feature","geometry":{"type":"Point","coordinates":[4.5137,52.1774]},"properties":{"wdid":"Q19538688","label":"Spoorbloem","count":"1"}},{"type":"Feature","geometry":{"type":"Point","coordinates":[4.5062,52.1638]},"properties":{"wdid":"Q19538970","label":"Spoorlaan","count":"1"}},{"type":"Feature","geometry":{"type":"Point","coordinates":[4.5125,52.1792]},"properties":{"wdid":"Q19544237","label":"Spreeuwenplaats","count":"1"}},{"type":"Feature","geometry":{"type":"Point","coordinates":[4.4726,52.1517]},"properties":{"wdid":"Q19275227","label":"Jacques Urlusplantsoen","count":"1"}},{"type":"Feature","geometry":{"type":"Point","coordinates":[4.514,52.1768]},"properties":{"wdid":"Q19558361","label":"Strobloem","count":"1"}},{"type":"Feature","geometry":{"type":"Point","coordinates":[4.4705,52.1479]},"properties":{"wdid":"Q19559325","label":"Sweelincklaan","count":"1"}},{"type":"Feature","geometry":{"type":"Point","coordinates":[4.4995,52.1832]},"properties":{"wdid":"Q19563924","label":"Tandkarper","count":"1"}},{"type":"Feature","geometry":{"type":"Point","coordinates":[4.4482,52.1523]},"properties":{"wdid":"Q19566008","label":"Th\u00e9r\u00e8se Schwartzestraat","count":"1"}},{"type":"Feature","geometry":{"type":"Point","coordinates":[4.4996,52.1503]},"properties":{"wdid":"Q19566475","label":"Tiboel Siegenbeekstraat","count":"1"}},{"type":"Feature","geometry":{"type":"Point","coordinates":[4.4788,52.1456]},"properties":{"wdid":"Q19567212","label":"Titus Brandsmalaan","count":"1"}},{"type":"Feature","geometry":{"type":"Point","coordinates":[4.4615,52.1629]},"properties":{"wdid":"Q19331592","label":"Luchtmansplein","count":"1"}},{"type":"Feature","geometry":{"type":"Point","coordinates":[4.5078,52.1737]},"properties":{"wdid":"Q19577101","label":"Valkenpad","count":"1"}},{"type":"Feature","geometry":{"type":"Point","coordinates":[4.4856,52.1554]},"properties":{"wdid":"Q18950596","label":"Bethaniehof","count":"1"}},{"type":"Feature","geometry":{"type":"Point","coordinates":[4.4853,52.1619]},"properties":{"wdid":"Q18956837","label":"Blauwpoortsbrug","count":"1"}},{"type":"Feature","geometry":{"type":"Point","coordinates":[4.5019,52.1627]},"properties":{"wdid":"Q18957220","label":"Blekerskade","count":"1"}},{"type":"Feature","geometry":{"type":"Point","coordinates":[4.4867,52.1623]},"properties":{"wdid":"Q18982444","label":"Coninckshof","count":"1"}},{"type":"Feature","geometry":{"type":"Point","coordinates":[4.5025,52.1753]},"properties":{"wdid":"Q19120554","label":"Essenrode","count":"1"}},{"type":"Feature","geometry":{"type":"Point","coordinates":[4.5008,52.1603]},"properties":{"wdid":"Q19281934","label":"Juffrouw Maashofje","count":"1"}},{"type":"Feature","geometry":{"type":"Point","coordinates":[4.4949,52.1585]},"properties":{"wdid":"Q19346227","label":"Mierennesthofje","count":"1"}},{"type":"Feature","geometry":{"type":"Point","coordinates":[4.484,52.1598]},"properties":{"wdid":"Q19383120","label":"Nova-Passage","count":"1"}},{"type":"Feature","geometry":{"type":"Point","coordinates":[4.4852,52.1553]},"properties":{"wdid":"Q19515497","label":"Sint Anna'shof","count":"1"}},{"type":"Feature","geometry":{"type":"Point","coordinates":[4.5013,52.1606]},"properties":{"wdid":"Q19570045","label":"Touwslagersgang","count":"1"}},{"type":"Feature","geometry":{"type":"Point","coordinates":[4.4866,52.1516]},"properties":{"wdid":"Q19576271","label":"Valdezstraat","count":"1"}},{"type":"Feature","geometry":{"type":"Point","coordinates":[4.4905,52.1544]},"properties":{"wdid":"Q19647759","label":"Weeshuishof","count":"1"}},{"type":"Feature","geometry":{"type":"Point","coordinates":[4.5039,52.1686]},"properties":{"wdid":"Q18935256","label":"Albertine Agnesstraat","count":"1"}},{"type":"Feature","geometry":{"type":"Point","coordinates":[4.4636,52.1603]},"properties":{"wdid":"Q19634356","label":"Vierlinghlaan","count":"1"}},{"type":"Feature","geometry":{"type":"Point","coordinates":[4.4712,52.1713]},"properties":{"wdid":"Q19635177","label":"Vinkenstraat","count":"1"}},{"type":"Feature","geometry":{"type":"Point","coordinates":[4.512,52.1473]},"properties":{"wdid":"Q19016561","label":"Dianastraat","count":"1"}},{"type":"Feature","geometry":{"type":"Point","coordinates":[4.4956,52.1608]},"properties":{"wdid":"Q19057882","label":"Duizenddraadsteeg","count":"1"}},{"type":"Feature","geometry":{"type":"Point","coordinates":[4.484,52.14]},"properties":{"wdid":"Q19250176","label":"Herman Kleibrinkstraat","count":"1"}},{"type":"Feature","geometry":{"type":"Point","coordinates":[4.5055,52.1817]},"properties":{"wdid":"Q19254248","label":"Hommelveld","count":"1"}},{"type":"Feature","geometry":{"type":"Point","coordinates":[4.4916,52.1668]},"properties":{"wdid":"Q19323540","label":"Leeuwenhoekstraat","count":"1"}},{"type":"Feature","geometry":{"type":"Point","coordinates":[4.5115,52.1656]},"properties":{"wdid":"Q19333682","label":"Madoerastraat","count":"1"}},{"type":"Feature","geometry":{"type":"Point","coordinates":[4.4906,52.1658]},"properties":{"wdid":"Q19460277","label":"Raamstraat","count":"1"}},{"type":"Feature","geometry":{"type":"Point","coordinates":[4.4933,52.1659]},"properties":{"wdid":"Q19516978","label":"Slachthuislaan","count":"1"}},{"type":"Feature","geometry":{"type":"Point","coordinates":[4.5169,52.1778]},"properties":{"wdid":"Q19551357","label":"Stokroos","count":"1"}},{"type":"Feature","geometry":{"type":"Point","coordinates":[4.4928,52.161]},"properties":{"wdid":"Q18956535","label":"Zuid Rundersteeg","count":"1"}},{"type":"Feature","geometry":{"type":"Point","coordinates":[4.4986,52.1598]},"properties":{"wdid":"Q18960782","label":"Zwartehandspoort","count":"1"}},{"type":"Feature","geometry":{"type":"Point","coordinates":[4.5079,52.1558]},"properties":{"wdid":"Q18984428","label":"Catharinastraat","count":"1"}},{"type":"Feature","geometry":{"type":"Point","coordinates":[4.492,52.1417]},"properties":{"wdid":"Q18985364","label":"Cronesteyn","count":"1"}},{"type":"Feature","geometry":{"type":"Point","coordinates":[4.4857,52.1551]},"properties":{"wdid":"Q19265233","label":"Jeruzalemshof","count":"1"}},{"type":"Feature","geometry":{"type":"Point","coordinates":[4.5011,52.1596]},"properties":{"wdid":"Q19312541","label":"Korte Langestraat","count":"1"}},{"type":"Feature","geometry":{"type":"Point","coordinates":[4.5026,52.1583]},"properties":{"wdid":"Q19317881","label":"Lakenplein","count":"1"}},{"type":"Feature","geometry":{"type":"Point","coordinates":[4.504,52.1451]},"properties":{"wdid":"Q19322975","label":"Le Pooleweg","count":"1"}},{"type":"Feature","geometry":{"type":"Point","coordinates":[4.4942,52.1605]},"properties":{"wdid":"Q19329339","label":"Lombardsteeg","count":"1"}},{"type":"Feature","geometry":{"type":"Point","coordinates":[4.5147,52.1697]},"properties":{"wdid":"Q19337206","label":"Marowijnepad","count":"1"}},{"type":"Feature","geometry":{"type":"Point","coordinates":[4.513,52.1678]},"properties":{"wdid":"Q18983243","label":"Corantijnstraat","count":"1"}},{"type":"Feature","geometry":{"type":"Point","coordinates":[4.4741,52.146]},"properties":{"wdid":"Q19059072","label":"Eduard van Beinumstraat","count":"1"}},{"type":"Feature","geometry":{"type":"Point","coordinates":[4.4647,52.1562]},"properties":{"wdid":"Q19474955","label":"Robijnstraat","count":"1"}},{"type":"Feature","geometry":{"type":"Point","coordinates":[4.5132,52.1799]},"properties":{"wdid":"Q19475826","label":"Roekenplaats","count":"1"}},{"type":"Feature","geometry":{"type":"Point","coordinates":[4.4971,52.1571]},"properties":{"wdid":"Q19477289","label":"Roggebroodshof","count":"1"}},{"type":"Feature","geometry":{"type":"Point","coordinates":[4.4781,52.1431]},"properties":{"wdid":"Q18932161","label":"Aerent Bruunstraat","count":"1"}},{"type":"Feature","geometry":{"type":"Point","coordinates":[4.4782,52.146]},"properties":{"wdid":"Q19350342","label":"Montgomerystraat","count":"2"}},{"type":"Feature","geometry":{"type":"Point","coordinates":[4.4884,52.1669]},"properties":{"wdid":"Q19427215","label":"Poelgeeststraat","count":"2"}},{"type":"Feature","geometry":{"type":"Point","coordinates":[4.4917,52.164]},"properties":{"wdid":"Q19464366","label":"Reineveststeeg","count":"2"}},{"type":"Feature","geometry":{"type":"Point","coordinates":[4.4931,52.1608]},"properties":{"wdid":"Q19508243","label":"Schagensteeg","count":"2"}},{"type":"Feature","geometry":{"type":"Point","coordinates":[4.5083,52.1668]},"properties":{"wdid":"Q19558991","label":"Surinamestraat","count":"2"}},{"type":"Feature","geometry":{"type":"Point","coordinates":[4.458,52.1579]},"properties":{"wdid":"Q19161614","label":"Gandhistraat","count":"2"}},{"type":"Feature","geometry":{"type":"Point","coordinates":[4.4787,52.146]},"properties":{"wdid":"Q19280469","label":"Johannes Poststraat","count":"2"}},{"type":"Feature","geometry":{"type":"Point","coordinates":[4.4996,52.1591]},"properties":{"wdid":"Q19295361","label":"Kerksteeg","count":"2"}},{"type":"Feature","geometry":{"type":"Point","coordinates":[4.4879,52.1446]},"properties":{"wdid":"Q19297949","label":"Kersenstraat","count":"2"}},{"type":"Feature","geometry":{"type":"Point","coordinates":[4.4863,52.1479]},"properties":{"wdid":"Q19302143","label":"Kiwipad","count":"2"}},{"type":"Feature","geometry":{"type":"Point","coordinates":[4.4979,52.1624]},"properties":{"wdid":"Q19304133","label":"Klokpoort","count":"2"}},{"type":"Feature","geometry":{"type":"Point","coordinates":[4.5138,52.1799]},"properties":{"wdid":"Q19305328","label":"Koekoeksplaats","count":"2"}},{"type":"Feature","geometry":{"type":"Point","coordinates":[4.4887,52.1611]},"properties":{"wdid":"Q19312667","label":"Korte Sint Agnietenstraat","count":"2"}},{"type":"Feature","geometry":{"type":"Point","coordinates":[4.5,52.1647]},"properties":{"wdid":"Q19644771","label":"Waldeck Pyrmontstraat","count":"2"}},{"type":"Feature","geometry":{"type":"Point","coordinates":[4.4998,52.1464]},"properties":{"wdid":"Q18945009","label":"Beijerincklaan","count":"2"}},{"type":"Feature","geometry":{"type":"Point","coordinates":[4.4803,52.1508]},"properties":{"wdid":"Q19301787","label":"Kiljanpad","count":"2"}},{"type":"Feature","geometry":{"type":"Point","coordinates":[4.4746,52.142]},"properties":{"wdid":"Q19328697","label":"Lisztpad","count":"2"}},{"type":"Feature","geometry":{"type":"Point","coordinates":[4.5064,52.1569]},"properties":{"wdid":"Q19395785","label":"Oosterstraat","count":"2"}},{"type":"Feature","geometry":{"type":"Point","coordinates":[4.4833,52.1572]},"properties":{"wdid":"Q19408575","label":"Paterstraatje","count":"2"}},{"type":"Feature","geometry":{"type":"Point","coordinates":[4.4912,52.1569]},"properties":{"wdid":"Q19421915","label":"Plaatsteeg","count":"2"}},{"type":"Feature","geometry":{"type":"Point","coordinates":[4.4903,52.1608]},"properties":{"wdid":"Q19533093","label":"Spijkerboorsteeg","count":"2"}},{"type":"Feature","geometry":{"type":"Point","coordinates":[4.5139,52.1594]},"properties":{"wdid":"Q19015671","label":"Dorus Rijkersweg","count":"2"}},{"type":"Feature","geometry":{"type":"Point","coordinates":[4.4649,52.157]},"properties":{"wdid":"Q19016487","label":"Diamantplein","count":"2"}},{"type":"Feature","geometry":{"type":"Point","coordinates":[4.4672,52.1589]},"properties":{"wdid":"Q19017697","label":"Dijkstraat","count":"2"}},{"type":"Feature","geometry":{"type":"Point","coordinates":[4.4569,52.1493]},"properties":{"wdid":"Q19018658","label":"Dobbedreef","count":"2"}},{"type":"Feature","geometry":{"type":"Point","coordinates":[4.487,52.1443]},"properties":{"wdid":"Q19056753","label":"Druivenstraat","count":"2"}},{"type":"Feature","geometry":{"type":"Point","coordinates":[4.502,52.1618]},"properties":{"wdid":"Q19058200","label":"Dwars Havenstraat","count":"2"}},{"type":"Feature","geometry":{"type":"Point","coordinates":[4.4812,52.1723]},"properties":{"wdid":"Q19132751","label":"Faljerilstraat","count":"2"}},{"type":"Feature","geometry":{"type":"Point","coordinates":[4.5041,52.1668]},"properties":{"wdid":"Q18942377","label":"Beatrixstraat","count":"2"}},{"type":"Feature","geometry":{"type":"Point","coordinates":[4.5106,52.174]},"properties":{"wdid":"Q18954034","label":"Zijldonk","count":"2"}},{"type":"Feature","geometry":{"type":"Point","coordinates":[4.4759,52.1583]},"properties":{"wdid":"Q18962611","label":"Borgerstraat","count":"2"}},{"type":"Feature","geometry":{"type":"Point","coordinates":[4.4731,52.1495]},"properties":{"wdid":"Q18983877","label":"Cornelis Schuytlaan","count":"2"}},{"type":"Feature","geometry":{"type":"Point","coordinates":[4.5026,52.1685]},"properties":{"wdid":"Q18985969","label":"Charlotte de Bourbonhof","count":"2"}},{"type":"Feature","geometry":{"type":"Point","coordinates":[4.4739,52.1754]},"properties":{"wdid":"Q19258615","label":"Hogerbeetsstraat","count":"2"}},{"type":"Feature","geometry":{"type":"Point","coordinates":[4.4913,52.1486]},"properties":{"wdid":"Q19266684","label":"Hyacinthenstraat","count":"2"}},{"type":"Feature","geometry":{"type":"Point","coordinates":[4.5164,52.1577]},"properties":{"wdid":"Q19281177","label":"Joop den Uyllaan","count":"2"}},{"type":"Feature","geometry":{"type":"Point","coordinates":[4.4965,52.1491]},"properties":{"wdid":"Q19291289","label":"Kapteynstraat","count":"2"}},{"type":"Feature","geometry":{"type":"Point","coordinates":[4.4873,52.1571]},"properties":{"wdid":"Q19277989","label":"Jan Pesijnshof","count":"2"}},{"type":"Feature","geometry":{"type":"Point","coordinates":[4.4614,52.1542]},"properties":{"wdid":"Q18983455","label":"Carneoolstraat","count":"2"}},{"type":"Feature","geometry":{"type":"Point","coordinates":[4.5018,52.152]},"properties":{"wdid":"Q19010185","label":"De Laat de Kanterstraat","count":"2"}},{"type":"Feature","geometry":{"type":"Point","coordinates":[4.4755,52.1607]},"properties":{"wdid":"Q19464478","label":"Reitzstraat","count":"2"}},{"type":"Feature","geometry":{"type":"Point","coordinates":[4.4931,52.1509]},"properties":{"wdid":"Q19465106","label":"Resedastraat","count":"2"}},{"type":"Feature","geometry":{"type":"Point","coordinates":[4.4791,52.1655]},"properties":{"wdid":"Q19413537","label":"Piet Paaltjenspad","count":"2"}},{"type":"Feature","geometry":{"type":"Point","coordinates":[4.5128,52.1715]},"properties":{"wdid":"Q19056241","label":"Driemasterwal","count":"2"}},{"type":"Feature","geometry":{"type":"Point","coordinates":[4.5088,52.1538]},"properties":{"wdid":"Q19632960","label":"Verdamstraat","count":"2"}},{"type":"Feature","geometry":{"type":"Point","coordinates":[4.5042,52.1496]},"properties":{"wdid":"Q19510938","label":"Scholtenstraat","count":"2"}},{"type":"Feature","geometry":{"type":"Point","coordinates":[4.4905,52.1689]},"properties":{"wdid":"Q19511092","label":"Schoolmeesterpad","count":"2"}},{"type":"Feature","geometry":{"type":"Point","coordinates":[4.4755,52.1551]},"properties":{"wdid":"Q19546531","label":"Staringkade","count":"2"}},{"type":"Feature","geometry":{"type":"Point","coordinates":[4.4801,52.1626]},"properties":{"wdid":"Q19276358","label":"Jan C. Smutsstraat","count":"2"}},{"type":"Feature","geometry":{"type":"Point","coordinates":[4.4578,52.1518]},"properties":{"wdid":"Q19571421","label":"Trien Semlerstraat","count":"2"}},{"type":"Feature","geometry":{"type":"Point","coordinates":[4.4799,52.147]},"properties":{"wdid":"Q19315767","label":"Kuipers-Rietbergstraat","count":"2"}},{"type":"Feature","geometry":{"type":"Point","coordinates":[4.5168,52.1564]},"properties":{"wdid":"Q19316722","label":"Laan der Verenigde Naties","count":"2"}},{"type":"Feature","geometry":{"type":"Point","coordinates":[4.4834,52.1604]},"properties":{"wdid":"Q19577124","label":"Valkensteeg","count":"2"}},{"type":"Feature","geometry":{"type":"Point","coordinates":[4.4798,52.1423]},"properties":{"wdid":"Q19624260","label":"Van 's-Gravensandestraat","count":"2"}},{"type":"Feature","geometry":{"type":"Point","coordinates":[4.4879,52.1669]},"properties":{"wdid":"Q19632494","label":"Vendelstraat","count":"2"}},{"type":"Feature","geometry":{"type":"Point","coordinates":[4.4727,52.1454]},"properties":{"wdid":"Q19633039","label":"Verdistraat","count":"2"}},{"type":"Feature","geometry":{"type":"Point","coordinates":[4.4913,52.1565]},"properties":{"wdid":"Q18962267","label":"Boomgaardsteeg","count":"2"}},{"type":"Feature","geometry":{"type":"Point","coordinates":[4.4624,52.163]},"properties":{"wdid":"Q18971298","label":"Brillstraat","count":"2"}},{"type":"Feature","geometry":{"type":"Point","coordinates":[4.492,52.1573]},"properties":{"wdid":"Q18979327","label":"Choorlammersteeg","count":"2"}},{"type":"Feature","geometry":{"type":"Point","coordinates":[4.4763,52.1581]},"properties":{"wdid":"Q19007959","label":"De Genestetstraat","count":"2"}},{"type":"Feature","geometry":{"type":"Point","coordinates":[4.4985,52.1552]},"properties":{"wdid":"Q19058199","label":"Dwars Bolwerkstraat","count":"2"}},{"type":"Feature","geometry":{"type":"Point","coordinates":[4.4442,52.1496]},"properties":{"wdid":"Q19335033","label":"Margaret Staalstraat","count":"2"}},{"type":"Feature","geometry":{"type":"Point","coordinates":[4.5035,52.1486]},"properties":{"wdid":"Q19626625","label":"Van Vollenhovenkade","count":"2"}},{"type":"Feature","geometry":{"type":"Point","coordinates":[4.4859,52.1729]},"properties":{"wdid":"Q18961236","label":"Zweilandlaan","count":"2"}},{"type":"Feature","geometry":{"type":"Point","coordinates":[4.4566,52.1686]},"properties":{"wdid":"Q19354353","label":"Niels Bohrweg","count":"2"}},{"type":"Feature","geometry":{"type":"Point","coordinates":[4.4844,52.176]},"properties":{"wdid":"Q19386776","label":"Oegstgeesterweg","count":"2"}},{"type":"Feature","geometry":{"type":"Point","coordinates":[4.506,52.1504]},"properties":{"wdid":"Q19396636","label":"Oppenheimstraat","count":"2"}},{"type":"Feature","geometry":{"type":"Point","coordinates":[4.4818,52.1566]},"properties":{"wdid":"Q19404140","label":"P.N. van Eyckhof","count":"2"}},{"type":"Feature","geometry":{"type":"Point","coordinates":[4.4969,52.1592]},"properties":{"wdid":"Q19158796","label":"Fran\u00e7ois Houttijnshof","count":"2"}},{"type":"Feature","geometry":{"type":"Point","coordinates":[4.5113,52.1799]},"properties":{"wdid":"Q19245037","label":"Heivlinder","count":"2"}},{"type":"Feature","geometry":{"type":"Point","coordinates":[4.5078,52.1634]},"properties":{"wdid":"Q19307794","label":"Kooizicht","count":"2"}},{"type":"Feature","geometry":{"type":"Point","coordinates":[4.4972,52.1573]},"properties":{"wdid":"Q19508066","label":"Schachtenhof","count":"2"}},{"type":"Feature","geometry":{"type":"Point","coordinates":[4.5138,52.1733]},"properties":{"wdid":"Q19056521","label":"Drontermeerlaan","count":"2"}},{"type":"Feature","geometry":{"type":"Point","coordinates":[4.4788,52.1529]},"properties":{"wdid":"Q19255772","label":"Hoflaan","count":"2"}},{"type":"Feature","geometry":{"type":"Point","coordinates":[4.5091,52.1725]},"properties":{"wdid":"Q19300280","label":"Kiekendiefhorst","count":"2"}},{"type":"Feature","geometry":{"type":"Point","coordinates":[4.4989,52.1621]},"properties":{"wdid":"Q19307914","label":"Koolstraat","count":"2"}},{"type":"Feature","geometry":{"type":"Point","coordinates":[4.4922,52.1599]},"properties":{"wdid":"Q19315773","label":"Kuiperssteeg","count":"2"}},{"type":"Feature","geometry":{"type":"Point","coordinates":[4.4607,52.1587]},"properties":{"wdid":"Q18932295","label":"Agaatlaan","count":"2"}},{"type":"Feature","geometry":{"type":"Point","coordinates":[4.5068,52.16]},"properties":{"wdid":"Q19644262","label":"Waardstraat","count":"3"}},{"type":"Feature","geometry":{"type":"Point","coordinates":[4.4789,52.145]},"properties":{"wdid":"Q19645025","label":"Walraven van Hallstraat","count":"3"}},{"type":"Feature","geometry":{"type":"Point","coordinates":[4.4792,52.1441]},"properties":{"wdid":"Q19652344","label":"Wiardi Beckmanstraat","count":"3"}},{"type":"Feature","geometry":{"type":"Point","coordinates":[4.4717,52.1447]},"properties":{"wdid":"Q18944280","label":"Beethovenlaan","count":"3"}},{"type":"Feature","geometry":{"type":"Point","coordinates":[4.4874,52.1597]},"properties":{"wdid":"Q19350363","label":"Mooi Japiksteeg","count":"3"}},{"type":"Feature","geometry":{"type":"Point","coordinates":[4.4946,52.1583]},"properties":{"wdid":"Q19350581","label":"Moriaansteeg","count":"3"}},{"type":"Feature","geometry":{"type":"Point","coordinates":[4.4836,52.1626]},"properties":{"wdid":"Q19352847","label":"Narmstraat","count":"3"}},{"type":"Feature","geometry":{"type":"Point","coordinates":[4.5027,52.1643]},"properties":{"wdid":"Q19431910","label":"Prinsenstraat","count":"3"}},{"type":"Feature","geometry":{"type":"Point","coordinates":[4.487,52.1612]},"properties":{"wdid":"Q19293815","label":"Kennewegsteeg","count":"3"}},{"type":"Feature","geometry":{"type":"Point","coordinates":[4.488,52.162]},"properties":{"wdid":"Q19319692","label":"Lange Lijsbethsteeg","count":"3"}},{"type":"Feature","geometry":{"type":"Point","coordinates":[4.5103,52.1582]},"properties":{"wdid":"Q19564185","label":"Tasmanstraat","count":"3"}},{"type":"Feature","geometry":{"type":"Point","coordinates":[4.4979,52.1483]},"properties":{"wdid":"Q18941019","label":"Bakhuis Roozenboomstraat","count":"3"}},{"type":"Feature","geometry":{"type":"Point","coordinates":[4.4928,52.1599]},"properties":{"wdid":"Q19058002","label":"Dullebakkersteeg","count":"3"}},{"type":"Feature","geometry":{"type":"Point","coordinates":[4.4941,52.1572]},"properties":{"wdid":"Q19188567","label":"Hartesteeg","count":"3"}},{"type":"Feature","geometry":{"type":"Point","coordinates":[4.4515,52.1563]},"properties":{"wdid":"Q19264160","label":"Jantina van Hoornkade","count":"3"}},{"type":"Feature","geometry":{"type":"Point","coordinates":[4.5154,52.1534]},"properties":{"wdid":"Q19341030","label":"Meerburgerkade","count":"3"}},{"type":"Feature","geometry":{"type":"Point","coordinates":[4.4642,52.158]},"properties":{"wdid":"Q19396505","label":"Opaalstraat","count":"3"}},{"type":"Feature","geometry":{"type":"Point","coordinates":[4.4882,52.1472]},"properties":{"wdid":"Q18980597","label":"Citrusweg","count":"3"}},{"type":"Feature","geometry":{"type":"Point","coordinates":[4.5172,52.1566]},"properties":{"wdid":"Q18982174","label":"Calslaan","count":"3"}},{"type":"Feature","geometry":{"type":"Point","coordinates":[4.4942,52.1544]},"properties":{"wdid":"Q18984462","label":"Cathrijnestraat","count":"3"}},{"type":"Feature","geometry":{"type":"Point","coordinates":[4.507,52.1625]},"properties":{"wdid":"Q18985020","label":"Celebesstraat","count":"3"}},{"type":"Feature","geometry":{"type":"Point","coordinates":[4.4911,52.1481]},"properties":{"wdid":"Q19002004","label":"Dahliastraat","count":"3"}},{"type":"Feature","geometry":{"type":"Point","coordinates":[4.5079,52.1624]},"properties":{"wdid":"Q19013472","label":"Decimastraat","count":"3"}},{"type":"Feature","geometry":{"type":"Point","coordinates":[4.4668,52.1565]},"properties":{"wdid":"Q19016479","label":"Diamantlaan","count":"3"}},{"type":"Feature","geometry":{"type":"Point","coordinates":[4.4965,52.1543]},"properties":{"wdid":"Q19138277","label":"Gerestraat","count":"3"}},{"type":"Feature","geometry":{"type":"Point","coordinates":[4.5092,52.1622]},"properties":{"wdid":"Q19152520","label":"Floresstraat","count":"3"}},{"type":"Feature","geometry":{"type":"Point","coordinates":[4.4884,52.1471]},"properties":{"wdid":"Q19158706","label":"Frambozenweg","count":"3"}},{"type":"Feature","geometry":{"type":"Point","coordinates":[4.4893,52.1469]},"properties":{"wdid":"Q18935385","label":"Ananasweg","count":"3"}},{"type":"Feature","geometry":{"type":"Point","coordinates":[4.5039,52.1749]},"properties":{"wdid":"Q18940142","label":"Arendshorst","count":"3"}},{"type":"Feature","geometry":{"type":"Point","coordinates":[4.4917,52.17]},"properties":{"wdid":"Q18941063","label":"Bakker Korffstraat","count":"3"}},{"type":"Feature","geometry":{"type":"Point","coordinates":[4.5143,52.1627]},"properties":{"wdid":"Q18962488","label":"Bootstraat","count":"3"}},{"type":"Feature","geometry":{"type":"Point","coordinates":[4.464,52.1613]},"properties":{"wdid":"Q18985554","label":"Cruquiuslaan","count":"3"}},{"type":"Feature","geometry":{"type":"Point","coordinates":[4.4763,52.1539]},"properties":{"wdid":"Q19159614","label":"Frederik van Eedenlaan","count":"3"}},{"type":"Feature","geometry":{"type":"Point","coordinates":[4.5055,52.1598]},"properties":{"wdid":"Q19250236","label":"Hermanstraat","count":"3"}},{"type":"Feature","geometry":{"type":"Point","coordinates":[4.4835,52.1626]},"properties":{"wdid":"Q19315196","label":"Kruisstraat","count":"3"}},{"type":"Feature","geometry":{"type":"Point","coordinates":[4.4761,52.1611]},"properties":{"wdid":"Q19012128","label":"De Wetstraat","count":"3"}},{"type":"Feature","geometry":{"type":"Point","coordinates":[4.4619,52.1614]},"properties":{"wdid":"Q19414081","label":"Pieter van der Aastraat","count":"3"}},{"type":"Feature","geometry":{"type":"Point","coordinates":[4.5196,52.1566]},"properties":{"wdid":"Q19559111","label":"Suze Groenewegplein","count":"3"}},{"type":"Feature","geometry":{"type":"Point","coordinates":[4.4824,52.1726]},"properties":{"wdid":"Q19017152","label":"Dieperpoellaan","count":"3"}},{"type":"Feature","geometry":{"type":"Point","coordinates":[4.4884,52.1569]},"properties":{"wdid":"Q19506185","label":"Salomonsteeg","count":"3"}},{"type":"Feature","geometry":{"type":"Point","coordinates":[4.4775,52.1563]},"properties":{"wdid":"Q19510376","label":"Schimmelstraat","count":"3"}},{"type":"Feature","geometry":{"type":"Point","coordinates":[4.4671,52.144]},"properties":{"wdid":"Q19512572","label":"Schubertlaan","count":"3"}},{"type":"Feature","geometry":{"type":"Point","coordinates":[4.4871,52.1617]},"properties":{"wdid":"Q19516422","label":"Sint Ursulasteeg","count":"3"}},{"type":"Feature","geometry":{"type":"Point","coordinates":[4.5143,52.1655]},"properties":{"wdid":"Q19522899","label":"Soembastraat","count":"3"}},{"type":"Feature","geometry":{"type":"Point","coordinates":[4.4682,52.1479]},"properties":{"wdid":"Q19266443","label":"Johan Wagenaarlaan","count":"3"}},{"type":"Feature","geometry":{"type":"Point","coordinates":[4.5157,52.1527]},"properties":{"wdid":"Q19268430","label":"IJsselkade","count":"3"}},{"type":"Feature","geometry":{"type":"Point","coordinates":[4.5096,52.1722]},"properties":{"wdid":"Q19268570","label":"IJsselmeerlaan","count":"3"}},{"type":"Feature","geometry":{"type":"Point","coordinates":[4.5006,52.1462]},"properties":{"wdid":"Q19564730","label":"Temminckstraat","count":"3"}},{"type":"Feature","geometry":{"type":"Point","coordinates":[4.49,52.1681]},"properties":{"wdid":"Q19576101","label":"Vaartkade","count":"3"}},{"type":"Feature","geometry":{"type":"Point","coordinates":[4.4784,52.1672]},"properties":{"wdid":"Q18935343","label":"Albinusdreef","count":"3"}},{"type":"Feature","geometry":{"type":"Point","coordinates":[4.4996,52.1623]},"properties":{"wdid":"Q18966758","label":"Brandewijnsgracht","count":"3"}},{"type":"Feature","geometry":{"type":"Point","coordinates":[4.4963,52.1659]},"properties":{"wdid":"Q19348665","label":"Molenstraat","count":"3"}},{"type":"Feature","geometry":{"type":"Point","coordinates":[4.4915,52.1726]},"properties":{"wdid":"Q19546209","label":"Stadspolderweg","count":"3"}},{"type":"Feature","geometry":{"type":"Point","coordinates":[4.5089,52.1742]},"properties":{"wdid":"Q19346384","label":"Milanenhorst","count":"3"}},{"type":"Feature","geometry":{"type":"Point","coordinates":[4.4709,52.1568]},"properties":{"wdid":"Q19350662","label":"Morskade","count":"3"}},{"type":"Feature","geometry":{"type":"Point","coordinates":[4.4799,52.1621]},"properties":{"wdid":"Q19408992","label":"Paul Krugerstraat","count":"3"}},{"type":"Feature","geometry":{"type":"Point","coordinates":[4.4797,52.1474]},"properties":{"wdid":"Q19634451","label":"Vijf Meiplein","count":"3"}},{"type":"Feature","geometry":{"type":"Point","coordinates":[4.4863,52.1481]},"properties":{"wdid":"Q19642947","label":"Vrijheidslaan","count":"3"}},{"type":"Feature","geometry":{"type":"Point","coordinates":[4.483,52.1718]},"properties":{"wdid":"Q19111449","label":"Eijmerspoelstraat","count":"3"}},{"type":"Feature","geometry":{"type":"Point","coordinates":[4.4782,52.1621]},"properties":{"wdid":"Q19329915","label":"Lopsenstraat","count":"3"}},{"type":"Feature","geometry":{"type":"Point","coordinates":[4.4938,52.1559]},"properties":{"wdid":"Q18942430","label":"Barbarasteeg","count":"3"}},{"type":"Feature","geometry":{"type":"Point","coordinates":[4.5034,52.162]},"properties":{"wdid":"Q18954159","label":"Zijlstraat","count":"3"}},{"type":"Feature","geometry":{"type":"Point","coordinates":[4.4972,52.1653]},"properties":{"wdid":"Q18974597","label":"Bronkhorststraat","count":"3"}},{"type":"Feature","geometry":{"type":"Point","coordinates":[4.4946,52.1479]},"properties":{"wdid":"Q18981451","label":"Buys Ballotstraat","count":"3"}},{"type":"Feature","geometry":{"type":"Point","coordinates":[4.4788,52.1539]},"properties":{"wdid":"Q19275159","label":"Jacques Perkstraat","count":"3"}},{"type":"Feature","geometry":{"type":"Point","coordinates":[4.4672,52.1632]},"properties":{"wdid":"Q19277539","label":"Jan Luykenlaan","count":"3"}},{"type":"Feature","geometry":{"type":"Point","coordinates":[4.5006,52.1647]},"properties":{"wdid":"Q19282743","label":"Julianastraat","count":"3"}},{"type":"Feature","geometry":{"type":"Point","coordinates":[4.4967,52.1609]},"properties":{"wdid":"Q19323904","label":"Legewerfsteeg","count":"3"}},{"type":"Feature","geometry":{"type":"Point","coordinates":[4.5029,52.1598]},"properties":{"wdid":"Q19329612","label":"Looiersplein","count":"3"}},{"type":"Feature","geometry":{"type":"Point","coordinates":[4.5039,52.1643]},"properties":{"wdid":"Q19332263","label":"Lusthoflaan","count":"3"}},{"type":"Feature","geometry":{"type":"Point","coordinates":[4.4718,52.1726]},"properties":{"wdid":"Q19479671","label":"Roodborststraat","count":"3"}},{"type":"Feature","geometry":{"type":"Point","coordinates":[4.492,52.1491]},"properties":{"wdid":"Q18936865","label":"Anjelierstraat","count":"3"}},{"type":"Feature","geometry":{"type":"Point","coordinates":[4.4833,52.1587]},"properties":{"wdid":"Q18940603","label":"Arsenaalstraat","count":"4"}},{"type":"Feature","geometry":{"type":"Point","coordinates":[4.5164,52.1529]},"properties":{"wdid":"Q18950371","label":"Zaanstraat","count":"4"}},{"type":"Feature","geometry":{"type":"Point","coordinates":[4.4981,52.1653]},"properties":{"wdid":"Q19340323","label":"Mauritsstraat","count":"4"}},{"type":"Feature","geometry":{"type":"Point","coordinates":[4.4978,52.1466]},"properties":{"wdid":"Q19158711","label":"Franchimontlaan","count":"4"}},{"type":"Feature","geometry":{"type":"Point","coordinates":[4.4897,52.1605]},"properties":{"wdid":"Q19194715","label":"Goegerritsteeg","count":"4"}},{"type":"Feature","geometry":{"type":"Point","coordinates":[4.4787,52.1623]},"properties":{"wdid":"Q19281451","label":"Joubertstraat","count":"4"}},{"type":"Feature","geometry":{"type":"Point","coordinates":[4.488,52.1632]},"properties":{"wdid":"Q19319904","label":"Lange Scheistraat","count":"4"}},{"type":"Feature","geometry":{"type":"Point","coordinates":[4.4955,52.1637]},"properties":{"wdid":"Q19575122","label":"Tweelingstraat","count":"4"}},{"type":"Feature","geometry":{"type":"Point","coordinates":[4.4854,52.1486]},"properties":{"wdid":"Q18979576","label":"Chris de Jongstraat","count":"4"}},{"type":"Feature","geometry":{"type":"Point","coordinates":[4.4669,52.16]},"properties":{"wdid":"Q18981982","label":"Calandstraat","count":"4"}},{"type":"Feature","geometry":{"type":"Point","coordinates":[4.4664,52.1595]},"properties":{"wdid":"Q18982511","label":"Conradstraat","count":"4"}},{"type":"Feature","geometry":{"type":"Point","coordinates":[4.4751,52.1606]},"properties":{"wdid":"Q19010150","label":"De la Reystraat","count":"4"}},{"type":"Feature","geometry":{"type":"Point","coordinates":[4.5035,52.1654]},"properties":{"wdid":"Q19017901","label":"Dillenburgerstraat","count":"4"}},{"type":"Feature","geometry":{"type":"Point","coordinates":[4.4892,52.1495]},"properties":{"wdid":"Q18929151","label":"Acaciastraat","count":"4"}},{"type":"Feature","geometry":{"type":"Point","coordinates":[4.5034,52.1733]},"properties":{"wdid":"Q18982369","label":"Condorhorst","count":"4"}},{"type":"Feature","geometry":{"type":"Point","coordinates":[4.4768,52.1588]},"properties":{"wdid":"Q19189721","label":"Hasebroekstraat","count":"4"}},{"type":"Feature","geometry":{"type":"Point","coordinates":[4.4938,52.1614]},"properties":{"wdid":"Q19205774","label":"Grevenstraat","count":"4"}},{"type":"Feature","geometry":{"type":"Point","coordinates":[4.5115,52.1626]},"properties":{"wdid":"Q18962758","label":"Borneostraat","count":"4"}},{"type":"Feature","geometry":{"type":"Point","coordinates":[4.4684,52.145]},"properties":{"wdid":"Q18985608","label":"C\u00e9sar Franckstraat","count":"4"}},{"type":"Feature","geometry":{"type":"Point","coordinates":[4.4631,52.1625]},"properties":{"wdid":"Q19514862","label":"Sijthoffstraat","count":"4"}},{"type":"Feature","geometry":{"type":"Point","coordinates":[4.5034,52.1702]},"properties":{"wdid":"Q19281193","label":"Joop Vervoornpad","count":"4"}},{"type":"Feature","geometry":{"type":"Point","coordinates":[4.5034,52.1578]},"properties":{"wdid":"Q19292673","label":"Katoenpark","count":"4"}},{"type":"Feature","geometry":{"type":"Point","coordinates":[4.4559,52.151]},"properties":{"wdid":"Q19550937","label":"Stevenshofdreef","count":"4"}},{"type":"Feature","geometry":{"type":"Point","coordinates":[4.4962,52.1466]},"properties":{"wdid":"Q19551034","label":"Stieltjesstraat","count":"4"}},{"type":"Feature","geometry":{"type":"Point","coordinates":[4.4749,52.156]},"properties":{"wdid":"Q19565202","label":"Ter Haarkade","count":"4"}},{"type":"Feature","geometry":{"type":"Point","coordinates":[4.4786,52.1627]},"properties":{"wdid":"Q19570430","label":"Transvaalhof","count":"4"}},{"type":"Feature","geometry":{"type":"Point","coordinates":[4.4785,52.1631]},"properties":{"wdid":"Q19570439","label":"Transvaalkade","count":"4"}},{"type":"Feature","geometry":{"type":"Point","coordinates":[4.489,52.1764]},"properties":{"wdid":"Q19570890","label":"Trekvaartplein","count":"4"}},{"type":"Feature","geometry":{"type":"Point","coordinates":[4.4886,52.149]},"properties":{"wdid":"Q19574196","label":"Tulpenstraat","count":"4"}},{"type":"Feature","geometry":{"type":"Point","coordinates":[4.4933,52.1577]},"properties":{"wdid":"Q18950376","label":"Beschuitsteeg","count":"4"}},{"type":"Feature","geometry":{"type":"Point","coordinates":[4.5091,52.1496]},"properties":{"wdid":"Q19626629","label":"Van Vollenhovenplein","count":"4"}},{"type":"Feature","geometry":{"type":"Point","coordinates":[4.4765,52.173]},"properties":{"wdid":"Q18931887","label":"Adriaan Pauwstraat","count":"4"}},{"type":"Feature","geometry":{"type":"Point","coordinates":[4.4958,52.1626]},"properties":{"wdid":"Q18941292","label":"Baatstraat","count":"4"}},{"type":"Feature","geometry":{"type":"Point","coordinates":[4.501,52.1622]},"properties":{"wdid":"Q19633766","label":"Ververstraatplein","count":"4"}},{"type":"Feature","geometry":{"type":"Point","coordinates":[4.4903,52.1643]},"properties":{"wdid":"Q19633954","label":"Vestwal","count":"4"}},{"type":"Feature","geometry":{"type":"Point","coordinates":[4.471,52.1605]},"properties":{"wdid":"Q19638266","label":"Vondellaan","count":"4"}},{"type":"Feature","geometry":{"type":"Point","coordinates":[4.513,52.1622]},"properties":{"wdid":"Q19639786","label":"Voorstraat","count":"4"}},{"type":"Feature","geometry":{"type":"Point","coordinates":[4.4915,52.171]},"properties":{"wdid":"Q19159371","label":"Frans van Mierisstraat","count":"4"}},{"type":"Feature","geometry":{"type":"Point","coordinates":[4.495,52.1721]},"properties":{"wdid":"Q19241540","label":"Hallenweg","count":"4"}},{"type":"Feature","geometry":{"type":"Point","coordinates":[4.4935,52.1333]},"properties":{"wdid":"Q19643171","label":"Vrouwenweg","count":"4"}},{"type":"Feature","geometry":{"type":"Point","coordinates":[4.5102,52.1604]},"properties":{"wdid":"Q19656416","label":"Willem Barentszstraat","count":"4"}},{"type":"Feature","geometry":{"type":"Point","coordinates":[4.4865,52.1591]},"properties":{"wdid":"Q18974779","label":"Brouckhovenshof","count":"4"}},{"type":"Feature","geometry":{"type":"Point","coordinates":[4.4896,52.1621]},"properties":{"wdid":"Q19202056","label":"Hazewindsteeg","count":"4"}},{"type":"Feature","geometry":{"type":"Point","coordinates":[4.4785,52.1543]},"properties":{"wdid":"Q19250126","label":"Herman Gorterstraat","count":"4"}},{"type":"Feature","geometry":{"type":"Point","coordinates":[4.5076,52.1543]},"properties":{"wdid":"Q19297873","label":"Kernstraat","count":"4"}},{"type":"Feature","geometry":{"type":"Point","coordinates":[4.4887,52.1644]},"properties":{"wdid":"Q19334936","label":"Marepoortkade","count":"4"}},{"type":"Feature","geometry":{"type":"Point","coordinates":[4.4983,52.1613]},"properties":{"wdid":"Q19335449","label":"Maria Gijzensteeg","count":"4"}},{"type":"Feature","geometry":{"type":"Point","coordinates":[4.5073,52.1656]},"properties":{"wdid":"Q19472966","label":"Ringkade","count":"4"}},{"type":"Feature","geometry":{"type":"Point","coordinates":[4.46775,52.161138888]},"properties":{"wdid":"Q19476191","label":"Roemer Visscherstraat","count":"4"}},{"type":"Feature","geometry":{"type":"Point","coordinates":[4.4727,52.1751]},"properties":{"wdid":"Q19645496","label":"Warmonderweg","count":"5"}},{"type":"Feature","geometry":{"type":"Point","coordinates":[4.4961,52.1496]},"properties":{"wdid":"Q18952388","label":"Zeemanlaan","count":"5"}},{"type":"Feature","geometry":{"type":"Point","coordinates":[4.4855,52.1489]},"properties":{"wdid":"Q19185442","label":"Hans Flustraat","count":"5"}},{"type":"Feature","geometry":{"type":"Point","coordinates":[4.4608,52.1627]},"properties":{"wdid":"Q19264982","label":"Hugo van Woerdenplein","count":"5"}},{"type":"Feature","geometry":{"type":"Point","coordinates":[4.4821,52.1673]},"properties":{"wdid":"Q18942680","label":"Bargelaan","count":"5"}},{"type":"Feature","geometry":{"type":"Point","coordinates":[4.5096,52.1582]},"properties":{"wdid":"Q19202591","label":"Heemskerkstraat","count":"5"}},{"type":"Feature","geometry":{"type":"Point","coordinates":[4.5037,52.1623]},"properties":{"wdid":"Q19277955","label":"Jan Paulushof","count":"5"}},{"type":"Feature","geometry":{"type":"Point","coordinates":[4.4962,52.1576]},"properties":{"wdid":"Q53245720","label":"Kloosterpoort","count":"5"}},{"type":"Feature","geometry":{"type":"Point","coordinates":[4.4714,52.1625]},"properties":{"wdid":"Q18983002","label":"Coornhertstraat","count":"5"}},{"type":"Feature","geometry":{"type":"Point","coordinates":[4.4715,52.1623]},"properties":{"wdid":"Q19127853","label":"Gerard Brandtstraat","count":"5"}},{"type":"Feature","geometry":{"type":"Point","coordinates":[4.5194,52.1561]},"properties":{"wdid":"Q18927141","label":"Aalberseplein","count":"5"}},{"type":"Feature","geometry":{"type":"Point","coordinates":[4.4863,52.1671]},"properties":{"wdid":"Q18938888","label":"Anthony Fokkerweg","count":"5"}},{"type":"Feature","geometry":{"type":"Point","coordinates":[4.4887,52.1584]},"properties":{"wdid":"Q18940100","label":"Arend Roelandsteeg","count":"5"}},{"type":"Feature","geometry":{"type":"Point","coordinates":[4.4878,52.1567]},"properties":{"wdid":"Q18982044","label":"Commanderijpoort","count":"5"}},{"type":"Feature","geometry":{"type":"Point","coordinates":[4.4705,52.1619]},"properties":{"wdid":"Q19273834","label":"Jacob Catslaan","count":"5"}},{"type":"Feature","geometry":{"type":"Point","coordinates":[4.4805,52.1412]},"properties":{"wdid":"Q19274285","label":"Jacob van Campenlaan","count":"5"}},{"type":"Feature","geometry":{"type":"Point","coordinates":[4.4955,52.1447]},"properties":{"wdid":"Q19288189","label":"Kanaalpark","count":"5"}},{"type":"Feature","geometry":{"type":"Point","coordinates":[4.5157,52.159]},"properties":{"wdid":"Q19313968","label":"Krefeldlaan","count":"5"}},{"type":"Feature","geometry":{"type":"Point","coordinates":[4.4733,52.1652]},"properties":{"wdid":"Q19003535","label":"Darwinweg","count":"5"}},{"type":"Feature","geometry":{"type":"Point","coordinates":[4.4953,52.1553]},"properties":{"wdid":"Q19317989","label":"Lambertushof","count":"5"}},{"type":"Feature","geometry":{"type":"Point","coordinates":[4.4777,52.1575]},"properties":{"wdid":"Q19429061","label":"Potgieterlaan","count":"5"}},{"type":"Feature","geometry":{"type":"Point","coordinates":[4.5181,52.1579]},"properties":{"wdid":"Q19508134","label":"Schaepmanplein","count":"5"}},{"type":"Feature","geometry":{"type":"Point","coordinates":[4.4911,52.1491]},"properties":{"wdid":"Q19514259","label":"Seringenstraat","count":"5"}},{"type":"Feature","geometry":{"type":"Point","coordinates":[4.4687,52.1611]},"properties":{"wdid":"Q19532992","label":"Spieghelstraat","count":"5"}},{"type":"Feature","geometry":{"type":"Point","coordinates":[4.4761,52.1547]},"properties":{"wdid":"Q19304888","label":"Kneppelhoutstraat","count":"5"}},{"type":"Feature","geometry":{"type":"Point","coordinates":[4.4996,52.1459]},"properties":{"wdid":"Q19559011","label":"Suringarstraat","count":"5"}},{"type":"Feature","geometry":{"type":"Point","coordinates":[4.4997,52.1515]},"properties":{"wdid":"Q19566336","label":"Thorbeckestraat","count":"5"}},{"type":"Feature","geometry":{"type":"Point","coordinates":[4.4759,52.1578]},"properties":{"wdid":"Q19567910","label":"Tollensstraat","count":"5"}},{"type":"Feature","geometry":{"type":"Point","coordinates":[4.5086,52.1584]},"properties":{"wdid":"Q19312891","label":"Kortenaerstraat","count":"5"}},{"type":"Feature","geometry":{"type":"Point","coordinates":[4.5098,52.1621]},"properties":{"wdid":"Q18958188","label":"Bloemstraat","count":"5"}},{"type":"Feature","geometry":{"type":"Point","coordinates":[4.4757,52.1534]},"properties":{"wdid":"Q18963122","label":"Boshuizerkade","count":"5"}},{"type":"Feature","geometry":{"type":"Point","coordinates":[4.4804,52.1589]},"properties":{"wdid":"Q19334198","label":"Maliebaan","count":"5"}},{"type":"Feature","geometry":{"type":"Point","coordinates":[4.4625,52.1641]},"properties":{"wdid":"Q19632865","label":"Verbeekstraat","count":"5"}},{"type":"Feature","geometry":{"type":"Point","coordinates":[4.499,52.1554]},"properties":{"wdid":"Q18961717","label":"Bolwerkstraat","count":"5"}},{"type":"Feature","geometry":{"type":"Point","coordinates":[4.5065,52.1585]},"properties":{"wdid":"Q19351786","label":"Munnikenstraat","count":"5"}},{"type":"Feature","geometry":{"type":"Point","coordinates":[4.4693,52.1724]},"properties":{"wdid":"Q19352370","label":"Nachtegaallaan","count":"5"}},{"type":"Feature","geometry":{"type":"Point","coordinates":[4.4713,52.1534]},"properties":{"wdid":"Q19303788","label":"Klikspaanweg","count":"5"}},{"type":"Feature","geometry":{"type":"Point","coordinates":[4.4954,52.1463]},"properties":{"wdid":"Q19342811","label":"Melchior Treublaan","count":"5"}},{"type":"Feature","geometry":{"type":"Point","coordinates":[4.509,52.1641]},"properties":{"wdid":"Q19406373","label":"Parkstraat","count":"5"}},{"type":"Feature","geometry":{"type":"Point","coordinates":[4.5057,52.1683]},"properties":{"wdid":"Q19413646","label":"Pieter Bothstraat","count":"5"}},{"type":"Feature","geometry":{"type":"Point","coordinates":[4.4865,52.1534]},"properties":{"wdid":"Q18953691","label":"Bilderdijkstraat","count":"5"}},{"type":"Feature","geometry":{"type":"Point","coordinates":[4.4974,52.1625]},"properties":{"wdid":"Q19117583","label":"Emmastraat","count":"5"}},{"type":"Feature","geometry":{"type":"Point","coordinates":[4.4942,52.1555]},"properties":{"wdid":"Q19283785","label":"Kaardesteeg","count":"5"}},{"type":"Feature","geometry":{"type":"Point","coordinates":[4.4852,52.1562]},"properties":{"wdid":"Q19306154","label":"Kolfmakersteeg","count":"5"}},{"type":"Feature","geometry":{"type":"Point","coordinates":[4.511,52.1641]},"properties":{"wdid":"Q18933967","label":"Ambonstraat","count":"5"}},{"type":"Feature","geometry":{"type":"Point","coordinates":[4.5032,52.166]},"properties":{"wdid":"Q18949807","label":"Bernhardkade","count":"5"}},{"type":"Feature","geometry":{"type":"Point","coordinates":[4.4825,52.1585]},"properties":{"wdid":"Q19465291","label":"Reuvensplaats","count":"5"}},{"type":"Feature","geometry":{"type":"Point","coordinates":[4.51,52.1542]},"properties":{"wdid":"Q19468831","label":"Rijndijkstraat","count":"5"}},{"type":"Feature","geometry":{"type":"Point","coordinates":[4.5099,52.152]},"properties":{"wdid":"Q19480034","label":"Roomburgerlaan","count":"5"}},{"type":"Feature","geometry":{"type":"Point","coordinates":[4.4949,52.1626]},"properties":{"wdid":"Q18951473","label":"Zandstraat","count":"6"}},{"type":"Feature","geometry":{"type":"Point","coordinates":[4.4729,52.1718]},"properties":{"wdid":"Q18956717","label":"Blauwe Vogelweg","count":"6"}},{"type":"Feature","geometry":{"type":"Point","coordinates":[4.4939,52.1605]},"properties":{"wdid":"Q19405653","label":"Paradijssteeg","count":"6"}},{"type":"Feature","geometry":{"type":"Point","coordinates":[4.5072,52.157]},"properties":{"wdid":"Q19123818","label":"Evertsenstraat","count":"6"}},{"type":"Feature","geometry":{"type":"Point","coordinates":[4.5128,52.1601]},"properties":{"wdid":"Q18931757","label":"Admiraal Helfrichweg","count":"6"}},{"type":"Feature","geometry":{"type":"Point","coordinates":[4.5019,52.1649]},"properties":{"wdid":"Q18936302","label":"Alexanderstraat","count":"6"}},{"type":"Feature","geometry":{"type":"Point","coordinates":[4.4848,52.1486]},"properties":{"wdid":"Q19186209","label":"Harmen Doumastraat","count":"6"}},{"type":"Feature","geometry":{"type":"Point","coordinates":[4.4682,52.1583]},"properties":{"wdid":"Q19002859","label":"Damlaan","count":"6"}},{"type":"Feature","geometry":{"type":"Point","coordinates":[4.4712,52.1722]},"properties":{"wdid":"Q19323761","label":"Leeuwerikstraat","count":"6"}},{"type":"Feature","geometry":{"type":"Point","coordinates":[4.5,52.1647]},"properties":{"wdid":"Q19523241","label":"Sophiastraat","count":"6"}},{"type":"Feature","geometry":{"type":"Point","coordinates":[4.4629,52.1576]},"properties":{"wdid":"Q19568851","label":"Topaaslaan","count":"6"}},{"type":"Feature","geometry":{"type":"Point","coordinates":[4.5072,52.1584]},"properties":{"wdid":"Q19572660","label":"Trompstraat","count":"6"}},{"type":"Feature","geometry":{"type":"Point","coordinates":[4.4913,52.1612]},"properties":{"wdid":"Q18980803","label":"Clarensteeg","count":"6"}},{"type":"Feature","geometry":{"type":"Point","coordinates":[4.5024,52.1618]},"properties":{"wdid":"Q19394864","label":"Oost Havenstraat","count":"6"}},{"type":"Feature","geometry":{"type":"Point","coordinates":[4.4853,52.1511]},"properties":{"wdid":"Q18976763","label":"Buitenruststraat","count":"6"}},{"type":"Feature","geometry":{"type":"Point","coordinates":[4.4885,52.1477]},"properties":{"wdid":"Q19160173","label":"Fruitweg","count":"6"}},{"type":"Feature","geometry":{"type":"Point","coordinates":[4.5012,52.1546]},"properties":{"wdid":"Q19404709","label":"Pakhuisstraat","count":"6"}},{"type":"Feature","geometry":{"type":"Point","coordinates":[4.5015,52.1619]},"properties":{"wdid":"Q19649519","label":"West Havenstraat","count":"6"}},{"type":"Feature","geometry":{"type":"Point","coordinates":[4.4783,52.1541]},"properties":{"wdid":"Q18935095","label":"Albert Verweijstraat","count":"6"}},{"type":"Feature","geometry":{"type":"Point","coordinates":[4.4682,52.1657]},"properties":{"wdid":"Q18939966","label":"Archimedesweg","count":"6"}},{"type":"Feature","geometry":{"type":"Point","coordinates":[4.4694,52.1615]},"properties":{"wdid":"Q18967923","label":"Brederostraat","count":"6"}},{"type":"Feature","geometry":{"type":"Point","coordinates":[4.4868,52.1633]},"properties":{"wdid":"Q19153197","label":"Fokkestraat","count":"6"}},{"type":"Feature","geometry":{"type":"Point","coordinates":[4.4996,52.163]},"properties":{"wdid":"Q19247983","label":"Hendrikstraat","count":"6"}},{"type":"Feature","geometry":{"type":"Point","coordinates":[4.4974,52.1569]},"properties":{"wdid":"Q19255249","label":"Hof van Veneti\u00eb","count":"6"}},{"type":"Feature","geometry":{"type":"Point","coordinates":[4.4861,52.1581]},"properties":{"wdid":"Q19263709","label":"Houtstraat","count":"6"}},{"type":"Feature","geometry":{"type":"Point","coordinates":[4.4929,52.1612]},"properties":{"wdid":"Q19371504","label":"Noord Rundersteeg","count":"6"}},{"type":"Feature","geometry":{"type":"Point","coordinates":[4.4776,52.1467]},"properties":{"wdid":"Q18952173","label":"Bevrijdingsplein","count":"7"}},{"type":"Feature","geometry":{"type":"Point","coordinates":[4.5029,52.1607]},"properties":{"wdid":"Q19346825","label":"Minnebroersgracht","count":"7"}},{"type":"Feature","geometry":{"type":"Point","coordinates":[4.4957,52.1555]},"properties":{"wdid":"Q19305526","label":"Koenesteeg","count":"7"}},{"type":"Feature","geometry":{"type":"Point","coordinates":[4.5112,52.1625]},"properties":{"wdid":"Q19157619","label":"Formosastraat","count":"7"}},{"type":"Feature","geometry":{"type":"Point","coordinates":[4.5097,52.1634]},"properties":{"wdid":"Q19264687","label":"Javastraat","count":"7"}},{"type":"Feature","geometry":{"type":"Point","coordinates":[4.4601,52.1634]},"properties":{"wdid":"Q19277915","label":"Jan Paetsplein","count":"7"}},{"type":"Feature","geometry":{"type":"Point","coordinates":[4.4767,52.1612]},"properties":{"wdid":"Q19471737","label":"Rijnzichtstraat","count":"7"}},{"type":"Feature","geometry":{"type":"Point","coordinates":[4.5172,52.1585]},"properties":{"wdid":"Q19507060","label":"Sam van Houtenplein","count":"7"}},{"type":"Feature","geometry":{"type":"Point","coordinates":[4.4878,52.1563]},"properties":{"wdid":"Q19508902","label":"Scheepmakerssteeg","count":"7"}},{"type":"Feature","geometry":{"type":"Point","coordinates":[4.4827,52.1597]},"properties":{"wdid":"Q19517550","label":"Sliksteeg","count":"7"}},{"type":"Feature","geometry":{"type":"Point","coordinates":[4.4908,52.1573]},"properties":{"wdid":"Q19299353","label":"Ketelboetersteeg","count":"7"}},{"type":"Feature","geometry":{"type":"Point","coordinates":[4.4847,52.1549]},"properties":{"wdid":"Q19550813","label":"Sterrenwacht","count":"7"}},{"type":"Feature","geometry":{"type":"Point","coordinates":[4.5078,52.1645]},"properties":{"wdid":"Q19307718","label":"Kooipark","count":"7"}},{"type":"Feature","geometry":{"type":"Point","coordinates":[4.4787,52.1501]},"properties":{"wdid":"Q19564638","label":"Telderskade","count":"7"}},{"type":"Feature","geometry":{"type":"Point","coordinates":[4.4693,52.1604]},"properties":{"wdid":"Q19565624","label":"Tesselschadestraat","count":"7"}},{"type":"Feature","geometry":{"type":"Point","coordinates":[4.502,52.1556]},"properties":{"wdid":"Q19628114","label":"Veerstraat","count":"7"}},{"type":"Feature","geometry":{"type":"Point","coordinates":[4.4861,52.1496]},"properties":{"wdid":"Q19142318","label":"Gerrit van der Laanstraat","count":"7"}},{"type":"Feature","geometry":{"type":"Point","coordinates":[4.4946,52.1544]},"properties":{"wdid":"Q19396813","label":"Oranjeboomstraat","count":"7"}},{"type":"Feature","geometry":{"type":"Point","coordinates":[4.4992,52.1654]},"properties":{"wdid":"Q19337178","label":"Marnixstraat","count":"7"}},{"type":"Feature","geometry":{"type":"Point","coordinates":[4.4703,52.1439]},"properties":{"wdid":"Q18966017","label":"Brahmslaan","count":"7"}},{"type":"Feature","geometry":{"type":"Point","coordinates":[4.519,52.1555]},"properties":{"wdid":"Q19136794","label":"Gerbrandylaan","count":"7"}},{"type":"Feature","geometry":{"type":"Point","coordinates":[4.4605,52.163]},"properties":{"wdid":"Q19264984","label":"Hugo van Woerdenstraat","count":"7"}},{"type":"Feature","geometry":{"type":"Point","coordinates":[4.4948,52.1607]},"properties":{"wdid":"Q18964566","label":"Bouwelouwensteeg","count":"7"}},{"type":"Feature","geometry":{"type":"Point","coordinates":[4.4873,52.1516]},"properties":{"wdid":"Q19057710","label":"Duivenbodestraat","count":"7"}},{"type":"Feature","geometry":{"type":"Point","coordinates":[4.4725,52.1415]},"properties":{"wdid":"Q19293729","label":"Kennedylaan","count":"7"}},{"type":"Feature","geometry":{"type":"Point","coordinates":[4.4918,52.1521]},"properties":{"wdid":"Q19328160","label":"Lindestraat","count":"7"}},{"type":"Feature","geometry":{"type":"Point","coordinates":[4.515,52.1676]},"properties":{"wdid":"Q19405979","label":"Paramaribostraat","count":"7"}},{"type":"Feature","geometry":{"type":"Point","coordinates":[4.468,52.1548]},"properties":{"wdid":"Q18934817","label":"Amphoraweg","count":"7"}},{"type":"Feature","geometry":{"type":"Point","coordinates":[4.4782,52.173]},"properties":{"wdid":"Q18939325","label":"Antonie Duycklaan","count":"8"}},{"type":"Feature","geometry":{"type":"Point","coordinates":[4.4751,52.1395]},"properties":{"wdid":"Q18939648","label":"Apollolaan","count":"8"}},{"type":"Feature","geometry":{"type":"Point","coordinates":[4.5187,52.1564]},"properties":{"wdid":"Q19012320","label":"Domela Nieuwenhuislaan","count":"8"}},{"type":"Feature","geometry":{"type":"Point","coordinates":[4.4754,52.1745]},"properties":{"wdid":"Q19129863","label":"Fagelstraat","count":"8"}},{"type":"Feature","geometry":{"type":"Point","coordinates":[4.5088,52.1626]},"properties":{"wdid":"Q19514682","label":"Sieboldstraat","count":"8"}},{"type":"Feature","geometry":{"type":"Point","coordinates":[4.4862,52.1511]},"properties":{"wdid":"Q19546018","label":"Stadhouderslaan","count":"8"}},{"type":"Feature","geometry":{"type":"Point","coordinates":[4.4664,52.1586]},"properties":{"wdid":"Q19551526","label":"Storm Buysingstraat","count":"8"}},{"type":"Feature","geometry":{"type":"Point","coordinates":[4.4869,52.1451]},"properties":{"wdid":"Q19568093","label":"Tomatenstraat","count":"8"}},{"type":"Feature","geometry":{"type":"Point","coordinates":[4.5048,52.1639]},"properties":{"wdid":"Q19397540","label":"Os en Paardenlaan","count":"8"}},{"type":"Feature","geometry":{"type":"Point","coordinates":[4.4976,52.1662]},"properties":{"wdid":"Q18933197","label":"Amaliastraat","count":"8"}},{"type":"Feature","geometry":{"type":"Point","coordinates":[4.4864,52.15]},"properties":{"wdid":"Q19326186","label":"Leuvenstraat","count":"8"}},{"type":"Feature","geometry":{"type":"Point","coordinates":[4.5039,52.1526]},"properties":{"wdid":"Q18981413","label":"Cobetstraat","count":"8"}},{"type":"Feature","geometry":{"type":"Point","coordinates":[4.496,52.1485]},"properties":{"wdid":"Q19264933","label":"Hugo de Vriesstraat","count":"8"}},{"type":"Feature","geometry":{"type":"Point","coordinates":[4.4781,52.1617]},"properties":{"wdid":"Q19516938","label":"Slaaghsloot","count":"8"}},{"type":"Feature","geometry":{"type":"Point","coordinates":[4.4904,52.1578]},"properties":{"wdid":"Q18948695","label":"Wolsteeg","count":"9"}},{"type":"Feature","geometry":{"type":"Point","coordinates":[4.4836,52.1616]},"properties":{"wdid":"Q19522236","label":"Smidssteeg","count":"9"}},{"type":"Feature","geometry":{"type":"Point","coordinates":[4.4738,52.1744]},"properties":{"wdid":"Q19265987","label":"Johan de Wittstraat","count":"9"}},{"type":"Feature","geometry":{"type":"Point","coordinates":[4.4911,52.1617]},"properties":{"wdid":"Q19305141","label":"Koddesteeg","count":"9"}},{"type":"Feature","geometry":{"type":"Point","coordinates":[4.4766,52.1558]},"properties":{"wdid":"Q19569937","label":"Toussaintkade","count":"9"}},{"type":"Feature","geometry":{"type":"Point","coordinates":[4.5121,52.1604]},"properties":{"wdid":"Q18931778","label":"Admiraalsweg","count":"9"}},{"type":"Feature","geometry":{"type":"Point","coordinates":[4.4985,52.1623]},"properties":{"wdid":"Q19307818","label":"Koolgracht","count":"9"}},{"type":"Feature","geometry":{"type":"Point","coordinates":[4.46028,52.16694]},"properties":{"wdid":"Q4905991","label":"Einsteinweg","count":"9"}},{"type":"Feature","geometry":{"type":"Point","coordinates":[4.4879,52.1591]},"properties":{"wdid":"Q18948444","label":"Berkendaalstraatje","count":"9"}},{"type":"Feature","geometry":{"type":"Point","coordinates":[4.4911,52.1662]},"properties":{"wdid":"Q19185521","label":"Hansenstraat","count":"9"}},{"type":"Feature","geometry":{"type":"Point","coordinates":[4.4942,52.1601]},"properties":{"wdid":"Q19257328","label":"Hooglandse Kerksteeg","count":"9"}},{"type":"Feature","geometry":{"type":"Point","coordinates":[4.4961,52.1647]},"properties":{"wdid":"Q19307472","label":"Koningstraat","count":"9"}},{"type":"Feature","geometry":{"type":"Point","coordinates":[4.4835,52.1707]},"properties":{"wdid":"Q19335978","label":"Mari\u00ebnpoelstraat","count":"9"}},{"type":"Feature","geometry":{"type":"Point","coordinates":[4.487,52.1564]},"properties":{"wdid":"Q18944645","label":"Begijnhof","count":"9"}},{"type":"Feature","geometry":{"type":"Point","coordinates":[4.4854,52.1605]},"properties":{"wdid":"Q19284082","label":"Kabeljauwsteeg","count":"9"}},{"type":"Feature","geometry":{"type":"Point","coordinates":[4.4982,52.1516]},"properties":{"wdid":"Q18985360","label":"Cronesteinkade","count":"9"}},{"type":"Feature","geometry":{"type":"Point","coordinates":[4.4807,52.1472]},"properties":{"wdid":"Q19480538","label":"Rooseveltstraat","count":"9"}},{"type":"Feature","geometry":{"type":"Point","coordinates":[4.4857,52.1494]},"properties":{"wdid":"Q18935666","label":"Andries Schotkade","count":"10"}},{"type":"Feature","geometry":{"type":"Point","coordinates":[4.4622,52.1618]},"properties":{"wdid":"Q18944041","label":"Bassonstraat","count":"10"}},{"type":"Feature","geometry":{"type":"Point","coordinates":[4.4754,52.1565]},"properties":{"wdid":"Q19565081","label":"Ten Katestraat","count":"10"}},{"type":"Feature","geometry":{"type":"Point","coordinates":[4.4986,52.1593]},"properties":{"wdid":"Q19271039","label":"Ir. Driessenstraat","count":"10"}},{"type":"Feature","geometry":{"type":"Point","coordinates":[4.4905,52.1516]},"properties":{"wdid":"Q19324383","label":"Leliestraat","count":"10"}},{"type":"Feature","geometry":{"type":"Point","coordinates":[4.4968,52.1553]},"properties":{"wdid":"Q19652726","label":"Wielmakersteeg","count":"10"}},{"type":"Feature","geometry":{"type":"Point","coordinates":[4.488694444,52.163119444]},"properties":{"wdid":"Q15730612","label":"Marktsteeg","count":"10"}},{"type":"Feature","geometry":{"type":"Point","coordinates":[4.4875,52.162]},"properties":{"wdid":"Q19116512","label":"Elisabeth Gasthuishof","count":"10"}},{"type":"Feature","geometry":{"type":"Point","coordinates":[4.5036,52.1607]},"properties":{"wdid":"Q18954770","label":"Binnenoostsingel","count":"10"}},{"type":"Feature","geometry":{"type":"Point","coordinates":[4.4677,52.1617]},"properties":{"wdid":"Q18982618","label":"Constantijn Huygenslaan","count":"10"}},{"type":"Feature","geometry":{"type":"Point","coordinates":[4.4769,52.1487]},"properties":{"wdid":"Q18963123","label":"Boshuizerlaan","count":"10"}},{"type":"Feature","geometry":{"type":"Point","coordinates":[4.4885,52.1614]},"properties":{"wdid":"Q19516551","label":"Sionsteeg","count":"10"}},{"type":"Feature","geometry":{"type":"Point","coordinates":[4.5006,52.1515]},"properties":{"wdid":"Q19645611","label":"Wasstraat","count":"11"}},{"type":"Feature","geometry":{"type":"Point","coordinates":[4.4916,52.1575]},"properties":{"wdid":"Q19058203","label":"Dwars Koornbrugsteeg","count":"11"}},{"type":"Feature","geometry":{"type":"Point","coordinates":[4.4974,52.1553]},"properties":{"wdid":"Q19533183","label":"Spilsteeg","count":"11"}},{"type":"Feature","geometry":{"type":"Point","coordinates":[4.4868,52.1499]},"properties":{"wdid":"Q19545924","label":"Staalwijkstraat","count":"11"}},{"type":"Feature","geometry":{"type":"Point","coordinates":[4.4486,52.16]},"properties":{"wdid":"Q19576524","label":"Valkenburgseweg","count":"11"}},{"type":"Feature","geometry":{"type":"Point","coordinates":[4.4933,52.1614]},"properties":{"wdid":"Q19637803","label":"Vollersgracht","count":"11"}},{"type":"Feature","geometry":{"type":"Point","coordinates":[4.5097,52.1634]},"properties":{"wdid":"Q19329383","label":"Lombokstraat","count":"11"}},{"type":"Feature","geometry":{"type":"Point","coordinates":[4.4881,52.1642]},"properties":{"wdid":"Q19349627","label":"Molenwerf","count":"11"}},{"type":"Feature","geometry":{"type":"Point","coordinates":[4.4878,52.1516]},"properties":{"wdid":"Q19052550","label":"Drie Octoberstraat","count":"11"}},{"type":"Feature","geometry":{"type":"Point","coordinates":[4.4958,52.1614]},"properties":{"wdid":"Q19245215","label":"Hekkensteeg","count":"11"}},{"type":"Feature","geometry":{"type":"Point","coordinates":[4.4916,52.1523]},"properties":{"wdid":"Q18958101","label":"Bloemistenlaan","count":"11"}},{"type":"Feature","geometry":{"type":"Point","coordinates":[4.493,52.1606]},"properties":{"wdid":"Q19620000","label":"Van der Werfstraat","count":"11"}},{"type":"Feature","geometry":{"type":"Point","coordinates":[4.4712,52.1459]},"properties":{"wdid":"Q19013435","label":"Debussystraat","count":"12"}},{"type":"Feature","geometry":{"type":"Point","coordinates":[4.4885,52.1672]},"properties":{"wdid":"Q19513092","label":"Schutterstraat","count":"12"}},{"type":"Feature","geometry":{"type":"Point","coordinates":[4.4815,52.1719]},"properties":{"wdid":"Q19284522","label":"Kagerstraat","count":"12"}},{"type":"Feature","geometry":{"type":"Point","coordinates":[4.488,52.1462]},"properties":{"wdid":"Q19628305","label":"Veilingkade","count":"12"}},{"type":"Feature","geometry":{"type":"Point","coordinates":[4.5189,52.1493]},"properties":{"wdid":"Q18950386","label":"Besjeslaan","count":"12"}},{"type":"Feature","geometry":{"type":"Point","coordinates":[4.5051,52.1532]},"properties":{"wdid":"Q19160135","label":"Fruinlaan","count":"12"}},{"type":"Feature","geometry":{"type":"Point","coordinates":[4.5124,52.166]},"properties":{"wdid":"Q19567029","label":"Timorstraat","count":"12"}},{"type":"Feature","geometry":{"type":"Point","coordinates":[4.5197,52.1568]},"properties":{"wdid":"Q18935930","label":"Aletta Jacobslaan","count":"12"}},{"type":"Feature","geometry":{"type":"Point","coordinates":[4.508,52.1649]},"properties":{"wdid":"Q18938088","label":"Atjehstraat","count":"12"}},{"type":"Feature","geometry":{"type":"Point","coordinates":[4.4895,52.1612]},"properties":{"wdid":"Q19643144","label":"Vrouwenkerkhof","count":"13"}},{"type":"Feature","geometry":{"type":"Point","coordinates":[4.4916,52.1617]},"properties":{"wdid":"Q19346889","label":"Mirakelsteeg","count":"13"}},{"type":"Feature","geometry":{"type":"Point","coordinates":[4.4899,52.1592]},"properties":{"wdid":"Q19334353","label":"Mandenmakerssteeg","count":"13"}},{"type":"Feature","geometry":{"type":"Point","coordinates":[4.4869,52.1665]},"properties":{"wdid":"Q19336298","label":"Marislaan","count":"13"}},{"type":"Feature","geometry":{"type":"Point","coordinates":[4.4672,52.164]},"properties":{"wdid":"Q19426673","label":"Plesmanlaan","count":"13"}},{"type":"Feature","geometry":{"type":"Point","coordinates":[4.4999,52.1549]},"properties":{"wdid":"Q19470868","label":"Rijnstraat","count":"13"}},{"type":"Feature","geometry":{"type":"Point","coordinates":[4.4898,52.1614]},"properties":{"wdid":"Q19012107","label":"Dolhuissteeg","count":"13"}},{"type":"Feature","geometry":{"type":"Point","coordinates":[4.4948,52.1597]},"properties":{"wdid":"Q19308728","label":"Koppenhinksteeg","count":"13"}},{"type":"Feature","geometry":{"type":"Point","coordinates":[4.5074,52.163]},"properties":{"wdid":"Q19340844","label":"Medusastraat","count":"13"}},{"type":"Feature","geometry":{"type":"Point","coordinates":[4.4823,52.1596]},"properties":{"wdid":"Q19464713","label":"Rembrandtstraat","count":"13"}},{"type":"Feature","geometry":{"type":"Point","coordinates":[4.4891,52.1612]},"properties":{"wdid":"Q19643146","label":"Vrouwenkerksteeg","count":"14"}},{"type":"Feature","geometry":{"type":"Point","coordinates":[4.4855,52.1451]},"properties":{"wdid":"Q18955373","label":"Zoeterwoudseweg","count":"14"}},{"type":"Feature","geometry":{"type":"Point","coordinates":[4.4901,52.151]},"properties":{"wdid":"Q19421752","label":"Pioenstraat","count":"14"}},{"type":"Feature","geometry":{"type":"Point","coordinates":[4.4842,52.1529]},"properties":{"wdid":"Q19140700","label":"Gerrit Doustraat","count":"14"}},{"type":"Feature","geometry":{"type":"Point","coordinates":[4.4962,52.1597]},"properties":{"wdid":"Q19283913","label":"Kaasmarkt","count":"14"}},{"type":"Feature","geometry":{"type":"Point","coordinates":[4.5063,52.1649]},"properties":{"wdid":"Q19307697","label":"Kooilaan","count":"14"}},{"type":"Feature","geometry":{"type":"Point","coordinates":[4.4764,52.138]},"properties":{"wdid":"Q19639519","label":"Voorschoterweg","count":"14"}},{"type":"Feature","geometry":{"type":"Point","coordinates":[4.4994,52.1612]},"properties":{"wdid":"Q19305698","label":"Koestraat","count":"15"}},{"type":"Feature","geometry":{"type":"Point","coordinates":[4.4883,52.1543]},"properties":{"wdid":"Q18982552","label":"Consci\u00ebntieplein","count":"15"}},{"type":"Feature","geometry":{"type":"Point","coordinates":[4.4909,52.1641]},"properties":{"wdid":"Q18926307","label":"3e Binnenvestgracht","count":"15"}},{"type":"Feature","geometry":{"type":"Point","coordinates":[4.4878,52.1666]},"properties":{"wdid":"Q18936845","label":"Alo\u00eblaan","count":"15"}},{"type":"Feature","geometry":{"type":"Point","coordinates":[4.4887,52.1602]},"properties":{"wdid":"Q19643165","label":"Vrouwensteeg","count":"16"}},{"type":"Feature","geometry":{"type":"Point","coordinates":[4.502,52.1605]},"properties":{"wdid":"Q19301535","label":"Kijfgracht","count":"16"}},{"type":"Feature","geometry":{"type":"Point","coordinates":[4.5005,52.1585]},"properties":{"wdid":"Q19644244","label":"Waardkerksteeg","count":"17"}},{"type":"Feature","geometry":{"type":"Point","coordinates":[4.4934,52.1629]},"properties":{"wdid":"Q19637850","label":"Volmolengracht","count":"17"}},{"type":"Feature","geometry":{"type":"Point","coordinates":[4.4818,52.1557]},"properties":{"wdid":"Q19207227","label":"Groenhovenstraat","count":"17"}},{"type":"Feature","geometry":{"type":"Point","coordinates":[4.506,52.1562]},"properties":{"wdid":"Q19468872","label":"Rijnkade","count":"17"}},{"type":"Feature","geometry":{"type":"Point","coordinates":[4.4898,52.1609]},"properties":{"wdid":"Q19643145","label":"Vrouwenkerkkoorstraat","count":"18"}},{"type":"Feature","geometry":{"type":"Point","coordinates":[4.4924,52.1613]},"properties":{"wdid":"Q19264185","label":"Janvossensteeg","count":"18"}},{"type":"Feature","geometry":{"type":"Point","coordinates":[4.497,52.1502]},"properties":{"wdid":"Q19329941","label":"Lorentzkade","count":"18"}},{"type":"Feature","geometry":{"type":"Point","coordinates":[4.5007,52.1604]},"properties":{"wdid":"Q19285447","label":"Kalvermarkt","count":"18"}},{"type":"Feature","geometry":{"type":"Point","coordinates":[4.4949,52.1562]},"properties":{"wdid":"Q19646806","label":"Watersteeg","count":"19"}},{"type":"Feature","geometry":{"type":"Point","coordinates":[4.4755,52.1573]},"properties":{"wdid":"Q18986344","label":"Da Costastraat","count":"19"}},{"type":"Feature","geometry":{"type":"Point","coordinates":[4.4972,52.1734]},"properties":{"wdid":"Q19200296","label":"Gooimeerlaan","count":"19"}},{"type":"Feature","geometry":{"type":"Point","coordinates":[4.499,52.158]},"properties":{"wdid":"Q19633928","label":"Vestestraat","count":"19"}},{"type":"Feature","geometry":{"type":"Point","coordinates":[4.4793,52.148]},"properties":{"wdid":"Q19634450","label":"Vijf Meilaan","count":"20"}},{"type":"Feature","geometry":{"type":"Point","coordinates":[4.4811,52.1729]},"properties":{"wdid":"Q19263086","label":"Houtlaan","count":"20"}},{"type":"Feature","geometry":{"type":"Point","coordinates":[4.4889,52.1542]},"properties":{"wdid":"Q19483427","label":"Ruime Consci\u00ebntiestraat","count":"20"}},{"type":"Feature","geometry":{"type":"Point","coordinates":[4.4895,52.1481]},"properties":{"wdid":"Q19292082","label":"Kastanjekade","count":"21"}},{"type":"Feature","geometry":{"type":"Point","coordinates":[4.4906,52.1587]},"properties":{"wdid":"Q19332910","label":"Maarsmansteeg","count":"21"}},{"type":"Feature","geometry":{"type":"Point","coordinates":[4.4992,52.1632]},"properties":{"wdid":"Q19375206","label":"Noorderstraat","count":"21"}},{"type":"Feature","geometry":{"type":"Point","coordinates":[4.4969,52.1625]},"properties":{"wdid":"Q19394943","label":"Oostdwarsgracht","count":"21"}},{"type":"Feature","geometry":{"type":"Point","coordinates":[4.4852,52.1555]},"properties":{"wdid":"Q18952718","label":"Zegersteeg","count":"22"}},{"type":"Feature","geometry":{"type":"Point","coordinates":[4.4857,52.1531]},"properties":{"wdid":"Q19642790","label":"Vreewijkstraat","count":"22"}},{"type":"Feature","geometry":{"type":"Point","coordinates":[4.4985,52.1545]},"properties":{"wdid":"Q19201255","label":"Gortestraat","count":"22"}},{"type":"Feature","geometry":{"type":"Point","coordinates":[4.5003,52.1506]},"properties":{"wdid":"Q19479751","label":"Roodenburgerstraat","count":"22"}},{"type":"Feature","geometry":{"type":"Point","coordinates":[4.4828,52.1537]},"properties":{"wdid":"Q15884083","label":"Witte Rozenstraat","count":"22"}},{"type":"Feature","geometry":{"type":"Point","coordinates":[4.4885,52.1588]},"properties":{"wdid":"Q16070583","label":"Diefsteeg","count":"22"}},{"type":"Feature","geometry":{"type":"Point","coordinates":[4.5005,52.1577]},"properties":{"wdid":"Q19320692","label":"Langestraat","count":"23"}},{"type":"Feature","geometry":{"type":"Point","coordinates":[4.4854,52.1638]},"properties":{"wdid":"Q18925528","label":"2e Binnenvestgracht","count":"23"}},{"type":"Feature","geometry":{"type":"Point","coordinates":[4.4824,52.1605]},"properties":{"wdid":"Q19647194","label":"Weddesteeg","count":"24"}},{"type":"Feature","geometry":{"type":"Point","coordinates":[4.4661,52.1583]},"properties":{"wdid":"Q19018741","label":"Doctor Lelylaan","count":"24"}},{"type":"Feature","geometry":{"type":"Point","coordinates":[4.4822,52.1617]},"properties":{"wdid":"Q19406115","label":"Park de Put","count":"24"}},{"type":"Feature","geometry":{"type":"Point","coordinates":[4.4866,52.1681]},"properties":{"wdid":"Q19510473","label":"Schipholweg","count":"25"}},{"type":"Feature","geometry":{"type":"Point","coordinates":[4.4851,52.153]},"properties":{"wdid":"Q19264848","label":"Hugo de Grootstraat","count":"25"}},{"type":"Feature","geometry":{"type":"Point","coordinates":[4.4933,52.147]},"properties":{"wdid":"Q19285782","label":"Kamerlingh Onnesplein","count":"26"}},{"type":"Feature","geometry":{"type":"Point","coordinates":[4.4885,52.1545]},"properties":{"wdid":"Q19287054","label":"Kampersteeg","count":"26"}},{"type":"Feature","geometry":{"type":"Point","coordinates":[4.4849,52.1557]},"properties":{"wdid":"Q18926428","label":"5e Binnenvestgracht","count":"26"}},{"type":"Feature","geometry":{"type":"Point","coordinates":[4.4888,52.1613]},"properties":{"wdid":"Q19319939","label":"Lange Sint Agnietenstraat","count":"27"}},{"type":"Feature","geometry":{"type":"Point","coordinates":[4.5106,52.1622]},"properties":{"wdid":"Q19056409","label":"Driftstraat","count":"27"}},{"type":"Feature","geometry":{"type":"Point","coordinates":[4.5129,52.1576]},"properties":{"wdid":"Q18931700","label":"Admiraal Banckertweg","count":"27"}},{"type":"Feature","geometry":{"type":"Point","coordinates":[4.4892,52.1581]},"properties":{"wdid":"Q19420845","label":"Pieterskerk-Choorsteeg","count":"28"}},{"type":"Feature","geometry":{"type":"Point","coordinates":[4.5102,52.1497]},"properties":{"wdid":"Q19480038","label":"Roomburgerweg","count":"28"}},{"type":"Feature","geometry":{"type":"Point","coordinates":[4.48667,52.14167]},"properties":{"wdid":"Q2441353","label":"Lammenschansplein","count":"29"}},{"type":"Feature","geometry":{"type":"Point","coordinates":[4.4812,52.1762]},"properties":{"wdid":"Q19206736","label":"Groene Maredijk","count":"29"}},{"type":"Feature","geometry":{"type":"Point","coordinates":[4.4915,52.1577]},"properties":{"wdid":"Q19308096","label":"Koornbrugsteeg","count":"29"}},{"type":"Feature","geometry":{"type":"Point","coordinates":[4.498,52.1549]},"properties":{"wdid":"Q19313466","label":"Kraaierstraat","count":"29"}},{"type":"Feature","geometry":{"type":"Point","coordinates":[4.4832,52.1689]},"properties":{"wdid":"Q18960445","label":"Boerhaavelaan","count":"30"}},{"type":"Feature","geometry":{"type":"Point","coordinates":[4.5126,52.1629]},"properties":{"wdid":"Q19558934","label":"Sumatrastraat","count":"30"}},{"type":"Feature","geometry":{"type":"Point","coordinates":[4.5019,52.1565]},"properties":{"wdid":"Q19283808","label":"Kaarsenmakersstraat","count":"30"}},{"type":"Feature","geometry":{"type":"Point","coordinates":[4.4853,52.1634]},"properties":{"wdid":"Q19515450","label":"Sint Aagtenstraat","count":"30"}},{"type":"Feature","geometry":{"type":"Point","coordinates":[4.4803,52.1601]},"properties":{"wdid":"Q19372025","label":"Noordeindeplein","count":"30"}},{"type":"Feature","geometry":{"type":"Point","coordinates":[4.4996,52.1628]},"properties":{"wdid":"Q19263211","label":"Houtmarkt","count":"31"}},{"type":"Feature","geometry":{"type":"Point","coordinates":[4.4949,52.1556]},"properties":{"wdid":"Q19515889","label":"Sint Jorissteeg","count":"31"}},{"type":"Feature","geometry":{"type":"Point","coordinates":[4.4954,52.1544]},"properties":{"wdid":"Q19137972","label":"Geregracht","count":"32"}},{"type":"Feature","geometry":{"type":"Point","coordinates":[4.4991,52.1543]},"properties":{"wdid":"Q19200830","label":"Haverstraat","count":"32"}},{"type":"Feature","geometry":{"type":"Point","coordinates":[4.4847,52.1403]},"properties":{"wdid":"Q19014163","label":"Delftse Jaagpad","count":"33"}},{"type":"Feature","geometry":{"type":"Point","coordinates":[4.4895,52.1633]},"properties":{"wdid":"Q19354907","label":"Nieuwe Mare","count":"33"}},{"type":"Feature","geometry":{"type":"Point","coordinates":[4.4832,52.1627]},"properties":{"wdid":"Q18925160","label":"1e Binnenvestgracht","count":"33"}},{"type":"Feature","geometry":{"type":"Point","coordinates":[4.4852,52.1549]},"properties":{"wdid":"Q19550815","label":"Sterrenwachtlaan","count":"34"}},{"type":"Feature","geometry":{"type":"Point","coordinates":[4.4992,52.1559]},"properties":{"wdid":"Q19575932","label":"Utrechtse Veer","count":"34"}},{"type":"Feature","geometry":{"type":"Point","coordinates":[4.5,52.1611]},"properties":{"wdid":"Q19195769","label":"Havenplein","count":"34"}},{"type":"Feature","geometry":{"type":"Point","coordinates":[4.456,52.1546]},"properties":{"wdid":"Q19468823","label":"Rijndijk","count":"35"}},{"type":"Feature","geometry":{"type":"Point","coordinates":[4.4859,52.1622]},"properties":{"wdid":"Q19574598","label":"Turfmarkt","count":"36"}},{"type":"Feature","geometry":{"type":"Point","coordinates":[4.502,52.1609]},"properties":{"wdid":"Q19195105","label":"Havenkade","count":"36"}},{"type":"Feature","geometry":{"type":"Point","coordinates":[4.4867,52.1593]},"properties":{"wdid":"Q19511178","label":"Schoolsteeg","count":"37"}},{"type":"Feature","geometry":{"type":"Point","coordinates":[4.5022,52.1587]},"properties":{"wdid":"Q19395577","label":"Oosterkerkstraat","count":"37"}},{"type":"Feature","geometry":{"type":"Point","coordinates":[4.4974,52.1611]},"properties":{"wdid":"Q19409804","label":"Pelikaanstraat","count":"37"}},{"type":"Feature","geometry":{"type":"Point","coordinates":[4.4698,52.1719]},"properties":{"wdid":"Q19344896","label":"Mezenstraat","count":"37"}},{"type":"Feature","geometry":{"type":"Point","coordinates":[4.4747,52.1697]},"properties":{"wdid":"Q19645577","label":"Wassenaarseweg","count":"38"}},{"type":"Feature","geometry":{"type":"Point","coordinates":[4.4558,52.1638]},"properties":{"wdid":"Q19234250","label":"Haagse Schouwweg","count":"38"}},{"type":"Feature","geometry":{"type":"Point","coordinates":[4.4887,52.157]},"properties":{"wdid":"Q19355851","label":"Nieuwsteeg","count":"38"}},{"type":"Feature","geometry":{"type":"Point","coordinates":[4.4849,52.1567]},"properties":{"wdid":"Q19371427","label":"Nonnensteeg","count":"38"}},{"type":"Feature","geometry":{"type":"Point","coordinates":[4.5023,52.1553]},"properties":{"wdid":"Q19422076","label":"Plantage","count":"39"}},{"type":"Feature","geometry":{"type":"Point","coordinates":[4.4934,52.1566]},"properties":{"wdid":"Q19161651","label":"Gangetje","count":"39"}},{"type":"Feature","geometry":{"type":"Point","coordinates":[4.4872,52.1525]},"properties":{"wdid":"Q19509351","label":"Schelpenkade","count":"43"}},{"type":"Feature","geometry":{"type":"Point","coordinates":[4.5015,52.1623]},"properties":{"wdid":"Q19633761","label":"Ververstraat","count":"43"}},{"type":"Feature","geometry":{"type":"Point","coordinates":[4.484,52.1579]},"properties":{"wdid":"Q19018887","label":"Doelensteeg","count":"43"}},{"type":"Feature","geometry":{"type":"Point","coordinates":[4.4861,52.1633]},"properties":{"wdid":"Q19354589","label":"Nieuwe Beestenmarkt","count":"44"}},{"type":"Feature","geometry":{"type":"Point","coordinates":[4.4622,52.151]},"properties":{"wdid":"Q19635258","label":"Vinkweg","count":"44"}},{"type":"Feature","geometry":{"type":"Point","coordinates":[4.4881,52.1568]},"properties":{"wdid":"Q19249728","label":"Herensteeg","count":"46"}},{"type":"Feature","geometry":{"type":"Point","coordinates":[4.4888,52.1655]},"properties":{"wdid":"Q19334910","label":"Maredijk","count":"46"}},{"type":"Feature","geometry":{"type":"Point","coordinates":[4.4866,52.1604]},"properties":{"wdid":"Q18962343","label":"Boommarkt","count":"47"}},{"type":"Feature","geometry":{"type":"Point","coordinates":[4.4682,52.1603]},"properties":{"wdid":"Q19317596","label":"Lage Morsweg","count":"47"}},{"type":"Feature","geometry":{"type":"Point","coordinates":[4.49926,52.15412]},"properties":{"wdid":"Q2349715","label":"4e Binnenvestgracht","count":"47"}},{"type":"Feature","geometry":{"type":"Point","coordinates":[4.4908,52.1601]},"properties":{"wdid":"Q19551133","label":"Stille Mare","count":"48"}},{"type":"Feature","geometry":{"type":"Point","coordinates":[4.50333,52.15]},"properties":{"wdid":"Q2976475","label":"Burggravenlaan","count":"49"}},{"type":"Feature","geometry":{"type":"Point","coordinates":[4.4895,52.1569]},"properties":{"wdid":"Q18956141","label":"Zonneveldstraat","count":"50"}},{"type":"Feature","geometry":{"type":"Point","coordinates":[4.4948,52.1579]},"properties":{"wdid":"Q19345624","label":"Middelweg","count":"50"}},{"type":"Feature","geometry":{"type":"Point","coordinates":[4.4914,52.1539]},"properties":{"wdid":"Q19253900","label":"Hoefstraat","count":"51"}},{"type":"Feature","geometry":{"type":"Point","coordinates":[4.4901,52.1659]},"properties":{"wdid":"Q19238878","label":"Haarlemmerweg","count":"51"}},{"type":"Feature","geometry":{"type":"Point","coordinates":[4.4874,52.1529]},"properties":{"wdid":"Q19262420","label":"Jan van Goyenkade","count":"52"}},{"type":"Feature","geometry":{"type":"Point","coordinates":[4.5065,52.1559]},"properties":{"wdid":"Q19575929","label":"Utrechtse Jaagpad","count":"54"}},{"type":"Feature","geometry":{"type":"Point","coordinates":[4.4752,52.1651]},"properties":{"wdid":"Q19411556","label":"Pesthuislaan","count":"55"}},{"type":"Feature","geometry":{"type":"Point","coordinates":[4.5023,52.1589]},"properties":{"wdid":"Q19644234","label":"Waardgracht","count":"57"}},{"type":"Feature","geometry":{"type":"Point","coordinates":[4.5014,52.1578]},"properties":{"wdid":"Q19396832","label":"Oranjegracht","count":"57"}},{"type":"Feature","geometry":{"type":"Point","coordinates":[4.4609,52.1533]},"properties":{"wdid":"Q19257841","label":"Hoge Morsweg","count":"57"}},{"type":"Feature","geometry":{"type":"Point","coordinates":[4.50611,52.1675]},"properties":{"wdid":"Q2025738","label":"Willem de Zwijgerlaan","count":"60"}},{"type":"Feature","geometry":{"type":"Point","coordinates":[4.4881,52.1583]},"properties":{"wdid":"Q19420849","label":"Pieterskerkstraat","count":"60"}},{"type":"Feature","geometry":{"type":"Point","coordinates":[4.5068,52.1619]},"properties":{"wdid":"Q19317611","label":"Lage Rijndijk","count":"60"}},{"type":"Feature","geometry":{"type":"Point","coordinates":[4.4915,52.1599]},"properties":{"wdid":"Q19013215","label":"Donkersteeg","count":"61"}},{"type":"Feature","geometry":{"type":"Point","coordinates":[4.4875,52.1584]},"properties":{"wdid":"Q19329281","label":"Lokhorststraat","count":"63"}},{"type":"Feature","geometry":{"type":"Point","coordinates":[4.5007,52.1623]},"properties":{"wdid":"Q19400386","label":"Oude Herengracht","count":"63"}},{"type":"Feature","geometry":{"type":"Point","coordinates":[4.491,52.1542]},"properties":{"wdid":"Q19515754","label":"Sint Jacobsgracht","count":"66"}},{"type":"Feature","geometry":{"type":"Point","coordinates":[4.49,52.1634]},"properties":{"wdid":"Q19312559","label":"Korte Mare","count":"66"}},{"type":"Feature","geometry":{"type":"Point","coordinates":[4.4897,52.1602]},"properties":{"wdid":"Q19551137","label":"Stille Rijn","count":"67"}},{"type":"Feature","geometry":{"type":"Point","coordinates":[4.485,52.1625]},"properties":{"wdid":"Q2274574","label":"Beestenmarkt","count":"69"}},{"type":"Feature","geometry":{"type":"Point","coordinates":[4.50595,52.162783]},"properties":{"wdid":"Q2416400","label":"Herensingel","count":"71"}},{"type":"Feature","geometry":{"type":"Point","coordinates":[4.492,52.1662]},"properties":{"wdid":"Q19407167","label":"Pasteurstraat","count":"73"}},{"type":"Feature","geometry":{"type":"Point","coordinates":[4.5014,52.16]},"properties":{"wdid":"Q18958278","label":"Zuidsingel","count":"77"}},{"type":"Feature","geometry":{"type":"Point","coordinates":[4.4878,52.1619]},"properties":{"wdid":"Q18981905","label":"Caeciliastraat","count":"77"}},{"type":"Feature","geometry":{"type":"Point","coordinates":[4.4927,52.1583]},"properties":{"wdid":"Q18980637","label":"Burgsteeg","count":"80"}},{"type":"Feature","geometry":{"type":"Point","coordinates":[4.4799,52.1585]},"properties":{"wdid":"Q19468785","label":"Rijn en Schiekade","count":"80"}},{"type":"Feature","geometry":{"type":"Point","coordinates":[4.48417,52.16139]},"properties":{"wdid":"Q2085680","label":"Kort Galgewater","count":"81"}},{"type":"Feature","geometry":{"type":"Point","coordinates":[4.4835,52.1592]},"properties":{"wdid":"Q19207200","label":"Groenhazengracht","count":"82"}},{"type":"Feature","geometry":{"type":"Point","coordinates":[4.4506,52.1606]},"properties":{"wdid":"Q19465457","label":"Rhijnhofweg","count":"83"}},{"type":"Feature","geometry":{"type":"Point","coordinates":[4.487,52.1572]},"properties":{"wdid":"Q19304138","label":"Kloksteeg","count":"85"}},{"type":"Feature","geometry":{"type":"Point","coordinates":[4.4933,52.1593]},"properties":{"wdid":"Q19619902","label":"Van der Sterrepad","count":"88"}},{"type":"Feature","geometry":{"type":"Point","coordinates":[4.5125,52.1536]},"properties":{"wdid":"Q19288665","label":"Kanaalweg","count":"89"}},{"type":"Feature","geometry":{"type":"Point","coordinates":[4.49127,52.15936]},"properties":{"wdid":"Q2101046","label":"Hoogstraat","count":"90"}},{"type":"Feature","geometry":{"type":"Point","coordinates":[4.4856,52.1615]},"properties":{"wdid":"Q19435027","label":"Prinsessekade","count":"94"}},{"type":"Feature","geometry":{"type":"Point","coordinates":[4.4892,52.1523]},"properties":{"wdid":"Q19249780","label":"Herenstraat","count":"100"}},{"type":"Feature","geometry":{"type":"Point","coordinates":[4.486,52.1594]},"properties":{"wdid":"Q19405488","label":"Papengracht","count":"101"}},{"type":"Feature","geometry":{"type":"Point","coordinates":[4.48778,52.16444]},"properties":{"wdid":"Q2087115","label":"Rijnsburgersingel","count":"101"}},{"type":"Feature","geometry":{"type":"Point","coordinates":[4.491,52.1588]},"properties":{"wdid":"Q19635486","label":"Vismarkt","count":"102"}},{"type":"Feature","geometry":{"type":"Point","coordinates":[4.4935,52.1551]},"properties":{"wdid":"Q19311397","label":"Korevaarstraat","count":"105"}},{"type":"Feature","geometry":{"type":"Point","coordinates":[4.49253,52.16497]},"properties":{"wdid":"Q2013743","label":"Maresingel","count":"111"}},{"type":"Feature","geometry":{"type":"Point","coordinates":[4.4925,52.1572]},"properties":{"wdid":"Q18964045","label":"Botermarkt","count":"113"}},{"type":"Feature","geometry":{"type":"Point","coordinates":[4.5079,52.1551]},"properties":{"wdid":"Q13727330","label":"Hoge Rijndijk","count":"116"}},{"type":"Feature","geometry":{"type":"Point","coordinates":[4.4789,52.1614]},"properties":{"wdid":"Q19350677","label":"Morsweg","count":"117"}},{"type":"Feature","geometry":{"type":"Point","coordinates":[4.48199,52.1636]},"properties":{"wdid":"Q2678054","label":"Morssingel","count":"117"}},{"type":"Feature","geometry":{"type":"Point","coordinates":[4.4839,52.1585]},"properties":{"wdid":"Q19018878","label":"Doelengracht","count":"124"}},{"type":"Feature","geometry":{"type":"Point","coordinates":[4.4848,52.1665]},"properties":{"wdid":"Q19513108","label":"Schuttersveld","count":"124"}},{"type":"Feature","geometry":{"type":"Point","coordinates":[4.5063,52.1606]},"properties":{"wdid":"Q18954105","label":"Zijlsingel","count":"126"}},{"type":"Feature","geometry":{"type":"Point","coordinates":[4.50167,52.16111]},"properties":{"wdid":"Q2026116","label":"Haven","count":"126"}},{"type":"Feature","geometry":{"type":"Point","coordinates":[4.4935,52.158]},"properties":{"wdid":"Q19355990","label":"Nieuwstraat","count":"132"}},